[{ "startDate": "2017-03-01T00:00:00.000Z", "endDate": "2017-03-31T00:00:00.000Z", "address": "Либідська пл., ТРЦ \"Оcean PLaza\";  ст. метро \"Либідська\"; вихід", "id": "787", "num": "4", "id_city": "1", "id_size": "1", "id_network": "493", "occupancy": "14s275r", "lon": "30.52375268", "lat": "50.41316210", "grp": "0.78", "ots": "23", "doors_no": "11973", "pos": "0", "angle": "300", "id_catab": "1", "price": 4000 }, {
    "address": "Либідська пл., ТРЦ \"Оcean PLaza\";  ст. метро \"Либідська\"; вихід",
    "id": "788",
    "num": "5",
    "id_city": "1",
    "id_size": "1",
    "id_network": "493",
    "occupancy": "14s275r",
    "lon": "30.52375268",
    "lat": "50.41316210",
    "grp": "2.08",
    "ots": "62",
    "doors_no": "1855",
    "pos": "0",
    "angle": "120",
    "id_catab": "1",
    "price": 4000
}, {
    "address": "Академіка Глушкова просп., ст.метро \"Виставковий центр\" ",
    "id": "901",
    "num": "15",
    "id_city": "1",
    "id_size": "1",
    "id_network": "493",
    "occupancy": "14s61t30f62r122f",
    "lon": "30.47807571",
    "lat": "50.38111298",
    "grp": "1.4",
    "ots": "42",
    "doors_no": "1905",
    "pos": "0",
    "angle": "75",
    "id_catab": "1",
    "price": 4000
}, { "address": "Академіка Глушкова просп., 1 - Васильківська вул., :ст.метро\"Виставковий центр\"; №2", "id": "897", "num": "16", "id_city": "1", "id_size": "1", "id_network": "493", "occupancy": "289s", "lon": "30.47761988", "lat": "50.38143859", "grp": "1.34", "ots": "40", "doors_no": "4232", "pos": "0", "angle": "270", "id_catab": "1", "price": 4000 }, { "address": "Одеська пл. - Академіка Глушкова просп.", "id": "701", "num": "17", "id_city": "1", "id_size": "1", "id_network": "493", "occupancy": "14s275r", "lon": "30.45971000", "lat": "50.37129400", "grp": "1.37", "ots": "41", "doors_no": "1922", "pos": "0", "angle": "285", "id_catab": "1", "price": 4000 }, { "address": "Харківська пл., ; №3", "id": "1256", "num": "24", "id_city": "1", "id_size": "1", "id_network": "493", "occupancy": "289f", "lon": "30.68286810", "lat": "50.40259642", "grp": "0.97", "ots": "29", "doors_no": "1953", "pos": "1", "angle": "105", "id_catab": "2", "price": 3800 }, { "address": "Возз`єднання просп., : 50 м від мосту ім.Патона", "id": "861", "num": "26", "id_city": "1", "id_size": "8", "id_network": "493", "occupancy": "289s", "lon": "30.59178241", "lat": "50.43037966", "grp": "1.5", "ots": "45", "doors_no": "170895", "pos": "0", "angle": "270", "id_catab": "1", "price": 4000 }, { "address": "Возз`єднання просп., : 200 м від мосту ім. Патона", "id": "863", "num": "28", "id_city": "1", "id_size": "1", "id_network": "493", "occupancy": "14s275r", "lon": "30.59502795", "lat": "50.43111550", "grp": "1.5", "ots": "45", "doors_no": "1975", "pos": "1", "angle": "120", "id_catab": "1", "price": 4000 }, { "address": "Возз`єднання просп., : 200 м від мосту ім. Патона", "id": "864", "num": "29", "id_city": "1", "id_size": "1", "id_network": "493", "occupancy": "14s30t245f", "lon": "30.59502795", "lat": "50.43111550", "grp": "1.37", "ots": "41", "doors_no": "9934", "pos": "-1", "angle": "120", "id_catab": "1", "price": 4000 }, { "address": "Миколи Бажана просп., : 10 м до Харківської пл.", "id": "855", "num": "33", "id_city": "1", "id_size": "1", "id_network": "493", "occupancy": "14s275r", "lon": "30.68059692", "lat": "50.40240887", "grp": "0.95", "ots": "28", "doors_no": "2022", "pos": "1", "angle": "75", "id_catab": "1", "price": 4000 }, { "address": "Серафимовича вул. - Дніпровська наб.", "id": "1248", "num": "39", "id_city": "1", "id_size": "1", "id_network": "493", "occupancy": "14s122r61f61r31f", "lon": "30.59296924", "lat": "50.43002683", "grp": "1", "ots": "30", "doors_no": "172072", "pos": "0", "angle": "165", "id_catab": "1", "price": 4000 }, { "address": "Харківська пл., ; №4", "id": "1258", "num": "64", "id_city": "1", "id_size": "1", "id_network": "493", "occupancy": "289s", "lon": "30.68235708", "lat": "50.40223562", "grp": "0.95", "ots": "28", "doors_no": "2254", "pos": "1", "angle": "60", "id_catab": "1", "price": 4000 }, { "address": "Костянтинівська вул. - Верхній Вал вул., ; №1", "id": "1063", "num": "9140.3", "id_city": "1", "id_size": "1", "id_network": "492", "occupancy": "14s30t245f", "lon": "30.51257844", "lat": "50.46634078", "grp": "0.52", "ots": "15", "doors_no": "9982", "pos": "0", "angle": "45", "id_catab": "1", "price": 4000 }, { "address": "Академіка Заболотного вул., : музей Народної архітектури і побуту України \"Пирогово\"", "id": "1053", "num": "73", "id_city": "1", "id_size": "1", "id_network": "493", "occupancy": "14s30r31t214t", "lon": "30.47352500", "lat": "50.35831100", "grp": "2.26", "ots": "68", "doors_no": "2305", "pos": "0", "angle": "45", "id_catab": "1", "price": 4000 }, { "address": "Академіка Заболотного вул., : музей Народної архітектури і побуту України \"Пирогово\"", "id": "1054", "num": "74", "id_city": "1", "id_size": "1", "id_network": "493", "occupancy": "289s", "lon": "30.47352500", "lat": "50.35831100", "grp": "1.15", "ots": "34", "doors_no": "9984", "pos": "0", "angle": "240", "id_catab": "1", "price": 4000 }, { "address": "Пасіонарії узвіз - Клочківська вул.", "id": "513", "num": "91", "id_city": "3", "id_size": "1", "id_network": "493", "occupancy": "289s", "lon": "36.21907300", "lat": "50.00405500", "grp": "3.82", "ots": "44", "doors_no": "14391", "pos": "0", "angle": "150", "id_catab": "1", "price": 4000 }, { "address": "Двірцева пл., 1", "id": "119", "num": "104", "id_city": "4", "id_size": "1", "id_network": "493", "occupancy": "289s", "lon": "23.99605000", "lat": "49.83882300", "grp": "2.95", "ots": "18", "doors_no": "36883", "pos": "0", "angle": "15", "id_catab": "1", "price": 4000 }, { "address": "Сeредньофонтанська пл - Середньофонтанська вул. - Гагаріна просп.", "id": "129", "num": "9083.3", "id_city": "5", "id_size": "1", "id_network": "492", "occupancy": "14r61t214f", "lon": "30.73843181", "lat": "46.45267182", "grp": "2.52", "ots": "28", "doors_no": "31779", "pos": "0", "angle": "150", "id_catab": "1", "price": 4000 }, { "address": "Харківське шосе - Привокзальна вул.", "id": "1265", "num": "115", "id_city": "1", "id_size": "1", "id_network": "493", "occupancy": "14s30r245f", "lon": "30.63703588", "lat": "50.42741366", "grp": "1.06", "ots": "32", "doors_no": "2405", "pos": "1", "angle": "30", "id_catab": "2", "price": 3800 }, { "address": "Олени Теліги вул., 25", "id": "1090", "num": "116", "id_city": "1", "id_size": "1", "id_network": "493", "occupancy": "289s", "lon": "30.44861300", "lat": "50.47563038", "grp": "1.96", "ots": "59", "doors_no": "2422", "pos": "0", "angle": "300", "id_catab": "1", "price": 4000 }, { "address": "Космонавта Комарова просп. - Івана Лепсе бульв., : ринок", "id": "874", "num": "118", "id_city": "1", "id_size": "1", "id_network": "493", "occupancy": "14s275r", "lon": "30.40999700", "lat": "50.43598200", "grp": "1.09", "ots": "33", "doors_no": "2429", "pos": "0", "angle": "255", "id_catab": "1", "price": 4000 }, { "address": "Космонавта Комарова просп., : Київська міська клінічна лікарня №6 \"МЕДМІСТЕЧКО\"", "id": "873", "num": "119", "id_city": "1", "id_size": "1", "id_network": "493", "occupancy": "289s", "lon": "30.41544354", "lat": "50.43687183", "grp": "0.99", "ots": "30", "doors_no": "2441", "pos": "0", "angle": "90", "id_catab": "1", "price": 4000 }, { "address": "Вадима Гетьмана вул., : 50 м від Індустріального мосту", "id": "1060", "num": "120", "id_city": "1", "id_size": "1", "id_network": "493", "occupancy": "289s", "lon": "30.44239219", "lat": "50.44483617", "grp": "1.73", "ots": "52", "doors_no": "2473", "pos": "0", "angle": "180", "id_catab": "1", "price": 4000 }, { "address": "Вадима Гетьмана вул. - Борщагівська вул., :Індустріальний міст", "id": "1059", "num": "122", "id_city": "1", "id_size": "1", "id_network": "493", "occupancy": "289s", "lon": "30.44171483", "lat": "50.44409400", "grp": "1.42", "ots": "43", "doors_no": "2490", "pos": "0", "angle": "0", "id_catab": "1", "price": 4000 }, { "address": "Чоколівський бульв. - Ушинського вул.", "id": "1104", "num": "125", "id_city": "1", "id_size": "1", "id_network": "493", "occupancy": "14s30f92r31f61r30f31r", "lon": "30.45245000", "lat": "50.43690400", "grp": "1.73", "ots": "52", "doors_no": "2558", "pos": "0", "angle": "15", "id_catab": "1", "price": 4000 }, { "address": "Перемоги просп., Академії сухопутних військ імені гетьмана Петра Сагайдачного ", "id": "878", "num": "126", "id_city": "1", "id_size": "1", "id_network": "493", "occupancy": "14s214r61r", "lon": "30.42605893", "lat": "50.45751680", "grp": "1.94", "ots": "58", "doors_no": "2572", "pos": "0", "angle": "30", "id_catab": "1", "price": 4000 }, { "address": "Маршала Жукова просп. - Академіка Глушко просп.", "id": "561", "num": "132", "id_city": "5", "id_size": "1", "id_network": "493", "occupancy": "14s30t245f", "lon": "30.70863505", "lat": "46.39758161", "grp": "2.39", "ots": "26", "doors_no": "30960", "pos": "0", "angle": "135", "id_catab": "1", "price": 4000 }, { "address": "Набережно-Хрещатицька вул., 10-А; №2", "id": "813", "num": "145", "id_city": "1", "id_size": "7", "id_network": "489", "occupancy": "14s30r92r31f61r30f31r", "lon": "30.52445420", "lat": "50.46917889", "grp": "1.6099999999999999", "ots": "48", "doors_no": "159305", "pos": "0", "angle": "180", "id_catab": "1", "price": 4000 }, { "address": "Маршала Гречка вул., : 100 м до розв\"язки з  просп. Правди", "id": "1052", "num": "148", "id_city": "1", "id_size": "1", "id_network": "493", "occupancy": "14s275f", "lon": "30.40802046", "lat": "50.50668594", "grp": "0.69", "ots": "21", "doors_no": "2592", "pos": "0", "angle": "0", "id_catab": "1", "price": 4000 }, { "address": "Ленінградське шосе, 2", "id": "62", "num": "149", "id_city": "5", "id_size": "1", "id_network": "493", "occupancy": "289s", "lon": "30.67492352", "lat": "46.49004743", "grp": "1.7", "ots": "19", "doors_no": "30968", "pos": "0", "angle": "240", "id_catab": "1", "price": 4000 }, { "address": "Ленінградське шосе, 2", "id": "63", "num": "150", "id_city": "5", "id_size": "1", "id_network": "493", "occupancy": "289f", "lon": "30.67492352", "lat": "46.49004743", "grp": "1.55", "ots": "17", "doors_no": "30970", "pos": "0", "angle": "60", "id_catab": "2", "price": 3800 }, { "address": "Стеценка вул., : ресторан \"Дубки\"", "id": "1088", "num": "162", "id_city": "1", "id_size": "1", "id_network": "493", "occupancy": "14s275r", "lon": "30.42361092", "lat": "50.47712479", "grp": "0.67", "ots": "20", "doors_no": "2601", "pos": "0", "angle": "255", "id_catab": "1", "price": 4000 }, { "address": "Вадима Гетьмана вул., : навпроти буд. №40", "id": "1057", "num": "185", "id_city": "1", "id_size": "1", "id_network": "493", "occupancy": "289s", "lon": "30.44510888", "lat": "50.44004267", "grp": "1.4", "ots": "42", "doors_no": "2610", "pos": "0", "angle": "210", "id_catab": "1", "price": 4000 }, { "address": "Борщагівська вул., : Індустріальний міст; №1", "id": "1027", "num": "186", "id_city": "1", "id_size": "1", "id_network": "493", "occupancy": "14s30r31t92f30r31f30r31f", "lon": "30.44097825", "lat": "50.44386551", "grp": "1.11", "ots": "33", "doors_no": "2624", "pos": "0", "angle": "255", "id_catab": "1", "price": 4000 }, { "address": "Борщагівська вул., : Індустріальний міст; №2", "id": "1028", "num": "188", "id_city": "1", "id_size": "1", "id_network": "493", "occupancy": "289s", "lon": "30.44114700", "lat": "50.44340100", "grp": "1.18", "ots": "35", "doors_no": "2631", "pos": "0", "angle": "105", "id_catab": "1", "price": 4000 }, { "address": "Правди просп. - Свободи просп.", "id": "888", "num": "195", "id_city": "1", "id_size": "1", "id_network": "493", "occupancy": "14s61r30r184f", "lon": "30.43750465", "lat": "50.50423230", "grp": "0.72", "ots": "22", "doors_no": "2648", "pos": "0", "angle": "270", "id_catab": "1", "price": 4000 }, { "address": "Правди просп., : 300 м до вул. Вишгородської", "id": "889", "num": "197", "id_city": "1", "id_size": "1", "id_network": "493", "occupancy": "289s", "lon": "30.44336700", "lat": "50.50514700", "grp": "0.52", "ots": "16", "doors_no": "75677", "pos": "0", "angle": "90", "id_catab": "1", "price": 4000 }, { "address": "Правди просп., .: 150 м до вул. Вишгородської", "id": "891", "num": "199", "id_city": "1", "id_size": "1", "id_network": "493", "occupancy": "289s", "lon": "30.44725720", "lat": "50.50554306", "grp": "0.67", "ots": "20", "doors_no": "2666", "pos": "0", "angle": "105", "id_catab": "1", "price": 4000 }, { "address": "Генерала Ватутіна просп., 22", "id": "871", "num": "200", "id_city": "1", "id_size": "1", "id_network": "493", "occupancy": "14s122r61f61r31f", "lon": "30.59382624", "lat": "50.49534852", "grp": "0.77", "ots": "23", "doors_no": "2695", "pos": "0", "angle": "270", "id_catab": "1", "price": 4000 }, { "address": "Генерала Ватутіна просп., 22", "id": "872", "num": "201", "id_city": "1", "id_size": "1", "id_network": "493", "occupancy": "14s122r61f61r31f", "lon": "30.59382624", "lat": "50.49534852", "grp": "0.77", "ots": "23", "doors_no": "2700", "pos": "0", "angle": "90", "id_catab": "1", "price": 4000 }, { "address": "Генерала Ватутіна просп. - Володимира Маяковського просп.", "id": "867", "num": "202", "id_city": "1", "id_size": "1", "id_network": "493", "occupancy": "289s", "lon": "30.58736719", "lat": "50.49539795", "grp": "2.02", "ots": "61", "doors_no": "2706", "pos": "0", "angle": "90", "id_catab": "1", "price": 4000 }, { "address": "Генерала Ватутіна просп. - Володимира Маяковського просп.", "id": "868", "num": "203", "id_city": "1", "id_size": "1", "id_network": "493", "occupancy": "289s", "lon": "30.58736719", "lat": "50.49539795", "grp": "1.8199999999999998", "ots": "55", "doors_no": "2711", "pos": "0", "angle": "270", "id_catab": "1", "price": 4000 }, { "address": "Олени Теліги вул. - Дегтярівська вул.", "id": "1092", "num": "250", "id_city": "1", "id_size": "1", "id_network": "493", "occupancy": "14s275r", "lon": "30.44671871", "lat": "50.46312353", "grp": "1.45", "ots": "44", "doors_no": "2767", "pos": "0", "angle": "330", "id_catab": "1", "price": 4000 }, { "address": "Пушкіна просп. - Сергія Нігояна прос. - Канатна вул.", "id": "189", "num": "251.3", "id_city": "10", "id_size": "1", "id_network": "492", "occupancy": "14s91t184f", "lon": "35.00994500", "lat": "48.46967700", "grp": "0.93", "ots": "9", "doors_no": "16982", "pos": "0", "angle": "75", "id_catab": "1", "price": 4000 }, { "address": "Робоча вул. - Свердлова вул.", "id": "688", "num": "253", "id_city": "10", "id_size": "1", "id_network": "493", "occupancy": "14s30f31r214f", "lon": "35.01108800", "lat": "48.46698900", "grp": "1.2", "ots": "12", "doors_no": "16984", "pos": "0", "angle": "120", "id_catab": "1", "price": 4000 }, { "address": "Петровського просп. - Алмазна вул.", "id": "188", "num": "259", "id_city": "10", "id_size": "1", "id_network": "493", "occupancy": "289s", "lon": "34.96908600", "lat": "48.46032500", "grp": "1.69", "ots": "17", "doors_no": "16990", "pos": "0", "angle": "150", "id_catab": "1", "price": 4000 }, { "address": "Генерала Ватутіна просп., : 100 м до Московського мосту", "id": "869", "num": "264", "id_city": "1", "id_size": "1", "id_network": "493", "occupancy": "14s30r31r61r31r61r30r31r", "lon": "30.54284044", "lat": "50.49300075", "grp": "1.48", "ots": "44", "doors_no": "2771", "pos": "0", "angle": "285", "id_catab": "1", "price": 4000 }, { "address": "Київське шосе - Баранова вул.", "id": "1414", "num": "279", "id_city": "29", "id_size": "1", "id_network": "493", "occupancy": "289f", "lon": "28.70343400", "lat": "50.27244900", "grp": "4.66", "ots": "9", "doors_no": "53307", "pos": "0", "angle": "345", "id_catab": "1", "price": 4000 }, { "address": "Червонозоряний просп.,  - 200 м до вул. Кіровоградської - Кіровоградська вул.", "id": "876", "num": "315", "id_city": "1", "id_size": "1", "id_network": "493", "occupancy": "14s30t31t214f", "lon": "30.49449925", "lat": "50.40795586", "grp": "1.3", "ots": "39", "doors_no": "2869", "pos": "0", "angle": "255", "id_catab": "1", "price": 4000 }, { "address": "Миру просп. - Вінницьке шосе", "id": "14", "num": "322", "id_city": "20", "id_size": "1", "id_network": "493", "occupancy": "14s30r245f", "lon": "27.02543300", "lat": "49.43064750", "grp": "5.6", "ots": "10", "doors_no": "58980", "pos": "0", "angle": "240", "id_catab": "2", "price": 3800 }, { "address": "Перемоги просп., Академії сухопутних військ імені гетьмана Петра Сагайдачного ", "id": "877", "num": "330", "id_city": "1", "id_size": "1", "id_network": "493", "occupancy": "14s30r245f", "lon": "30.42605893", "lat": "50.45751680", "grp": "1.73", "ots": "52", "doors_no": "2576", "pos": "0", "angle": "285", "id_catab": "2", "price": 3800 }, { "address": "Броварський просп., 130 м до ст.метро \"Чернігівська\"", "id": "704", "num": "338", "id_city": "1", "id_size": "1", "id_network": "493", "occupancy": "14s275r", "lon": "30.62845500", "lat": "50.46019000", "grp": "1.27", "ots": "38", "doors_no": "190672", "pos": "0", "angle": "75", "id_catab": "1", "price": 4000 }, { "address": "Броварський просп., 130 м до ст.метро \"Чернігівська\"", "id": "705", "num": "339", "id_city": "1", "id_size": "1", "id_network": "493", "occupancy": "14s275r", "lon": "30.62845500", "lat": "50.46019000", "grp": "0.4", "ots": "12", "doors_no": "190673", "pos": "0", "angle": "240", "id_catab": "2", "price": 3800 }, { "address": "Броварський просп., : 500 м до ст.метро \"Чернігівська\"", "id": "706", "num": "340", "id_city": "1", "id_size": "1", "id_network": "493", "occupancy": "14s214r61r", "lon": "30.62015100", "lat": "50.45796300", "grp": "1.42", "ots": "42", "doors_no": "2948", "pos": "0", "angle": "90", "id_catab": "1", "price": 4000 }, { "address": "Броварський просп., : 500 м до ст.метро \"Чернігівська\"", "id": "707", "num": "341", "id_city": "1", "id_size": "1", "id_network": "493", "occupancy": "14s275f", "lon": "30.62015100", "lat": "50.45796300", "grp": "1.3", "ots": "39", "doors_no": "2953", "pos": "0", "angle": "330", "id_catab": "2", "price": 3800 }, { "address": "Перемоги просп., : 100 м до Кільцевої дороги", "id": "884", "num": "344", "id_city": "1", "id_size": "1", "id_network": "493", "occupancy": "14s30t31t214f", "lon": "30.35785229", "lat": "50.45560354", "grp": "1.53", "ots": "46", "doors_no": "2971", "pos": "0", "angle": "240", "id_catab": "1", "price": 4000 }, { "address": "Миколи Бажана просп., : 200 м до Південного мосту", "id": "1282", "num": "352", "id_city": "1", "id_size": "1", "id_network": "493", "occupancy": "289s", "lon": "30.60195785", "lat": "50.39451032", "grp": "1.3", "ots": "39", "doors_no": "6199", "pos": "-1", "angle": "240", "id_catab": "1", "price": 4000 }, { "address": "Олени Теліги вул., : 300 м до вул. Кирилівської", "id": "1093", "num": "365", "id_city": "1", "id_size": "1", "id_network": "493", "occupancy": "289s", "lon": "30.47092300", "lat": "50.48422700", "grp": "1.51", "ots": "45", "doors_no": "2991", "pos": "0", "angle": "0", "id_catab": "2", "price": 3800 }, { "address": "Оболонський просп. - Героїв Дніпра вул., ;ст. метро \"Героїв Дніпра\" ", "id": "703", "num": "367", "id_city": "1", "id_size": "1", "id_network": "493", "occupancy": "14s30r245f", "lon": "30.49778173", "lat": "50.52280707", "grp": "0.52", "ots": "16", "doors_no": "3025", "pos": "0", "angle": "285", "id_catab": "1", "price": 4000 }, { "address": "Незалежності вул., (Кінотеатр \"Космос\")", "id": "575", "num": "372", "id_city": "12", "id_size": "1", "id_network": "493", "occupancy": "14f30t245f", "lon": "24.72451150", "lat": "48.91772700", "grp": "12", "ots": "18", "doors_no": "88868", "pos": "0", "angle": "75", "id_catab": "2", "price": 3800 }, { "address": "Миру вул. - Сакко вул.", "id": "361", "num": "384", "id_city": "23", "id_size": "1", "id_network": "493", "occupancy": "289f", "lon": "34.59183400", "lat": "49.58178400", "grp": "6.05", "ots": "15", "doors_no": "40774", "pos": "0", "angle": "150", "id_catab": "2", "price": 3800 }, { "address": "Леніна вул. - Першотравневий просп.", "id": "352", "num": "387", "id_city": "23", "id_size": "1", "id_network": "493", "occupancy": "14s275f", "lon": "34.55976800", "lat": "49.58292500", "grp": "6.11", "ots": "15", "doors_no": "40684", "pos": "0", "angle": "270", "id_catab": "2", "price": 3800 }, { "address": "Героїв Сталінградe вул. - Великотирнівська вул.", "id": "332", "num": "389", "id_city": "23", "id_size": "1", "id_network": "493", "occupancy": "44s245f", "lon": "34.49272800", "lat": "49.57061000", "grp": "7.28", "ots": "17", "doors_no": "40617", "pos": "0", "angle": "150", "id_catab": "1", "price": 4000 }, { "address": "Великотирнівська вул., (Автовокзал)", "id": "1403", "num": "390", "id_city": "23", "id_size": "1", "id_network": "493", "occupancy": "14s30t245f", "lon": "34.49186300", "lat": "49.56722400", "grp": "7.19", "ots": "17", "doors_no": "40584", "pos": "0", "angle": "210", "id_catab": "2", "price": 3800 }, { "address": "Ульянова вул. - Кірова просп.", "id": "183", "num": "412", "id_city": "10", "id_size": "1", "id_network": "493", "occupancy": "14s30t245f", "lon": "35.02708750", "lat": "48.46080250", "grp": "0.86", "ots": "9", "doors_no": "17014", "pos": "0", "angle": "75", "id_catab": "1", "price": 4000 }, { "address": "Гетьмана Мазепи вул. - Промислова вул.", "id": "355", "num": "442", "id_city": "4", "id_size": "1", "id_network": "493", "occupancy": "289s", "lon": "24.04259900", "lat": "49.87242550", "grp": "5.25", "ots": "31", "doors_no": "35541", "pos": "0", "angle": "285", "id_catab": "1", "price": 4000 }, { "address": "Гетьмана Мазепи вул. - Промислова вул.", "id": "356", "num": "443", "id_city": "4", "id_size": "1", "id_network": "493", "occupancy": "289s", "lon": "24.04259900", "lat": "49.87242550", "grp": "4.99", "ots": "30", "doors_no": "35540", "pos": "0", "angle": "105", "id_catab": "2", "price": 3800 }, { "address": "Личаківська вул., 199", "id": "354", "num": "444", "id_city": "4", "id_size": "1", "id_network": "493", "occupancy": "14s30t245f", "lon": "24.06999300", "lat": "49.83609000", "grp": "2.64", "ots": "16", "doors_no": "35544", "pos": "0", "angle": "255", "id_catab": "1", "price": 4000 }, { "address": "Личаківська вул., 75", "id": "353", "num": "447", "id_city": "4", "id_size": "1", "id_network": "493", "occupancy": "289s", "lon": "24.04999800", "lat": "49.83999800", "grp": "4.29", "ots": "26", "doors_no": "35554", "pos": "0", "angle": "255", "id_catab": "2", "price": 3800 }, { "address": "Новозаводська вул. - Миру просп.", "id": "370", "num": "452", "id_city": "22", "id_size": "1", "id_network": "493", "occupancy": "289f", "lon": "32.06065200", "lat": "46.93872300", "grp": "3.04", "ots": "12", "doors_no": "56933", "pos": "0", "angle": "240", "id_catab": "1", "price": 4000 }, { "address": "Жовтневий просп. - Херсонське шосе", "id": "221", "num": "453", "id_city": "22", "id_size": "1", "id_network": "493", "occupancy": "289s", "lon": "32.03501400", "lat": "46.96277300", "grp": "7.97", "ots": "30", "doors_no": "57029", "pos": "0", "angle": "30", "id_catab": "1", "price": 4000 }, { "address": "Жовтневий просп. - Чигрина вул. - Миру просп.", "id": "219", "num": "454", "id_city": "22", "id_size": "1", "id_network": "493", "occupancy": "14s275f", "lon": "32.03287400", "lat": "46.95649800", "grp": "5.31", "ots": "20", "doors_no": "57003", "pos": "0", "angle": "300", "id_catab": "1", "price": 4000 }, { "address": "Леніна просп. - Пушкінська вул.", "id": "210", "num": "455", "id_city": "22", "id_size": "1", "id_network": "493", "occupancy": "31f258r", "lon": "31.98105400", "lat": "46.96696400", "grp": "9.41", "ots": "36", "doors_no": "56734", "pos": "0", "angle": "15", "id_catab": "1", "price": 4000 }, { "address": "Леніна просп. - Генерала Карпенка вул.", "id": "205", "num": "457", "id_city": "22", "id_size": "1", "id_network": "493", "occupancy": "289f", "lon": "31.95736800", "lat": "46.96900000", "grp": "5.86", "ots": "22", "doors_no": "56841", "pos": "0", "angle": "270", "id_catab": "1", "price": 4000 }, { "address": "Московський просп., : 100 м до Московського мосту", "id": "892", "num": "459", "id_city": "1", "id_size": "1", "id_network": "493", "occupancy": "14s214r61r", "lon": "30.52822832", "lat": "50.48877752", "grp": "1.35", "ots": "40", "doors_no": "3268", "pos": "0", "angle": "285", "id_catab": "1", "price": 4000 }, { "address": "Привокзальний майдан, (З/Д вокзал)", "id": "33", "num": "466", "id_city": "24", "id_size": "1", "id_network": "493", "occupancy": "14f30t31t214f", "lon": "26.26634931", "lat": "50.61220671", "grp": "10.29", "ots": "19", "doors_no": "285198", "pos": "0", "angle": "65", "id_catab": "1", "price": 4000 }, { "address": "Київський майдан - Волі просп. - Рівненьська вул. - Дубнівська вул.", "id": "51", "num": "473", "id_city": "13", "id_size": "1", "id_network": "493", "occupancy": "14s30r31t214f", "lon": "25.35632669", "lat": "50.74254113", "grp": "10.14", "ots": "15", "doors_no": "59898", "pos": "1", "angle": "30", "id_catab": "1", "price": 4000 }, { "address": "Президента Грушевського просп., 31 - Привокзальна вул. - Привокзальна пл.", "id": "197", "num": "477", "id_city": "13", "id_size": "1", "id_network": "493", "occupancy": "14f275r", "lon": "25.34863145", "lat": "50.75766818", "grp": "4.37", "ots": "7", "doors_no": "59943", "pos": "0", "angle": "285", "id_catab": "1", "price": 4000 }, { "address": "Карпенка-Карого вул., 1 - Конякіна вул., (Завокзальний ринок)", "id": "38", "num": "479", "id_city": "13", "id_size": "1", "id_network": "493", "occupancy": "289s", "lon": "25.35310110", "lat": "50.76038272", "grp": "3.58", "ots": "5", "doors_no": "59954", "pos": "0", "angle": "270", "id_catab": "1", "price": 4000 }, { "address": "Велика Морська вул., 13 - Бузький бульв.", "id": "321", "num": "487", "id_city": "22", "id_size": "1", "id_network": "493", "occupancy": "289f", "lon": "31.97179350", "lat": "46.98140250", "grp": "3.02", "ots": "11", "doors_no": "56555", "pos": "0", "angle": "45", "id_catab": "2", "price": 3800 }, { "address": "Голосіївська пл., : готель \"Мир\"; №2:ст.метро \"Голосіївська\"", "id": "758", "num": "515", "id_city": "1", "id_size": "1", "id_network": "493", "occupancy": "289s", "lon": "30.50851380", "lat": "50.39756855", "grp": "0.82", "ots": "25", "doors_no": "195892", "pos": "0", "angle": "285", "id_catab": "1", "price": 4000 }, { "address": "Чорновола Вячеслава вул. - Бандери Степана вул.", "id": "380", "num": "544", "id_city": "24", "id_size": "1", "id_network": "493", "occupancy": "289s", "lon": "26.25667650", "lat": "50.61370350", "grp": "12.14", "ots": "22", "doors_no": "65352", "pos": "0", "angle": "195", "id_catab": "1", "price": 4000 }, { "address": "Макарова вул., 23", "id": "328", "num": "545", "id_city": "24", "id_size": "1", "id_network": "493", "occupancy": "289s", "lon": "26.20222925", "lat": "50.62653450", "grp": "3.95", "ots": "7", "doors_no": "156030", "pos": "0", "angle": "15", "id_catab": "1", "price": 4000 }, { "address": "Соборна вул. - Коцюбинського вул.", "id": "378", "num": "546", "id_city": "24", "id_size": "1", "id_network": "493", "occupancy": "289s", "lon": "26.22887600", "lat": "50.62344800", "grp": "6.42", "ots": "12", "doors_no": "65355", "pos": "0", "angle": "75", "id_catab": "1", "price": 4000 }, { "address": "Калинівська вул. - Хотинська вул.", "id": "388", "num": "144", "id_city": "15", "id_size": "1", "id_network": "493", "occupancy": "289f", "lon": "25.96128958", "lat": "48.32198372", "grp": "3.32", "ots": "6", "doors_no": "60396", "pos": "0", "angle": "15", "id_catab": "1", "price": 4000 }, { "address": "Калинівська вул. - Хотинська вул.", "id": "389", "num": "151", "id_city": "15", "id_size": "1", "id_network": "493", "occupancy": "289f", "lon": "25.96128958", "lat": "48.32198372", "grp": "3.32", "ots": "6", "doors_no": "60395", "pos": "0", "angle": "15", "id_catab": "1", "price": 4000 }, { "address": "Незалежності просп. - Небесної Сотні вул.", "id": "187", "num": "549", "id_city": "15", "id_size": "1", "id_network": "493", "occupancy": "14s275r", "lon": "25.93989100", "lat": "48.26744300", "grp": "17.06", "ots": "31", "doors_no": "60543", "pos": "0", "angle": "150", "id_catab": "1", "price": 4000 }, { "address": "Незалежності просп., 113 - Небесної Сотні вул.", "id": "185", "num": "550", "id_city": "15", "id_size": "1", "id_network": "493", "occupancy": "289s", "lon": "25.93828700", "lat": "48.26747800", "grp": "6.9", "ots": "12", "doors_no": "60547", "pos": "0", "angle": "75", "id_catab": "1", "price": 4000 }, { "address": "Головна вул. - Герцена вул.", "id": "335", "num": "553", "id_city": "15", "id_size": "1", "id_network": "493", "occupancy": "14f30t245f", "lon": "25.94391800", "lat": "48.27583250", "grp": "4.51", "ots": "8", "doors_no": "204245", "pos": "0", "angle": "30", "id_catab": "2", "price": 3800 }, { "address": "Космонавтів вул. - 25-ої Чапаєвської Дивізії вул.", "id": "346", "num": "558", "id_city": "5", "id_size": "1", "id_network": "493", "occupancy": "14s30f31t214f", "lon": "30.70515600", "lat": "46.42416400", "grp": "0.89", "ots": "10", "doors_no": "260389", "pos": "0", "angle": "330", "id_catab": "1", "price": 4000 }, { "address": "Фонтанська дорога - Сегедська вул., 23", "id": "8", "num": "561", "id_city": "5", "id_size": "1", "id_network": "493", "occupancy": "14f30t31t30t184f", "lon": "30.74228700", "lat": "46.44482450", "grp": "1.65", "ots": "18", "doors_no": "182553", "pos": "0", "angle": "0", "id_catab": "1", "price": 4000 }, { "address": "Фонтанська дорога - Сегедська вул., 23", "id": "9", "num": "562", "id_city": "5", "id_size": "1", "id_network": "493", "occupancy": "289s", "lon": "30.74228700", "lat": "46.44482450", "grp": "2.7", "ots": "30", "doors_no": "182541", "pos": "0", "angle": "180", "id_catab": "1", "price": 4000 }, { "address": "Набережно-Лугова вул. - Оленівська вул.", "id": "1080", "num": "598", "id_city": "1", "id_size": "1", "id_network": "493", "occupancy": "14f275r", "lon": "30.50616280", "lat": "50.47500766", "grp": "0.66", "ots": "20", "doors_no": "3573", "pos": "0", "angle": "90", "id_catab": "1", "price": 4000 }, { "address": "Набережно-Лугова вул. - Оленівська вул.", "id": "1081", "num": "599", "id_city": "1", "id_size": "1", "id_network": "493", "occupancy": "14s275f", "lon": "30.50616280", "lat": "50.47500766", "grp": "0.76", "ots": "23", "doors_no": "3576", "pos": "0", "angle": "270", "id_catab": "2", "price": 3800 }, { "address": "Миколи Бажана просп., 100 м до Харківської пл.", "id": "845", "num": "600", "id_city": "1", "id_size": "1", "id_network": "493", "occupancy": "14s30r245f", "lon": "30.67994780", "lat": "50.40285713", "grp": "0.97", "ots": "29", "doors_no": "3585", "pos": "0", "angle": "105", "id_catab": "2", "price": 3800 }, { "address": "Миколи Бажана просп., 100 м до Харківської пл.", "id": "846", "num": "601", "id_city": "1", "id_size": "1", "id_network": "493", "occupancy": "289s", "lon": "30.67994780", "lat": "50.40285713", "grp": "0.88", "ots": "26", "doors_no": "3590", "pos": "0", "angle": "225", "id_catab": "1", "price": 4000 }, { "address": "Тараса Шевченка пл., : Мінське шосе; навпроти автостоянки \"Полісся\"", "id": "833", "num": "614", "id_city": "1", "id_size": "1", "id_network": "493", "occupancy": "14s30r245f", "lon": "30.45026064", "lat": "50.52251011", "grp": "0.81", "ots": "24", "doors_no": "3675", "pos": "0", "angle": "165", "id_catab": "2", "price": 3800 }, { "address": "Луначарського вул., 1/2: 300 м от ст.метро \"Лівобережна\"", "id": "1073", "num": "616", "id_city": "1", "id_size": "1", "id_network": "493", "occupancy": "289s", "lon": "30.59395400", "lat": "50.45547500", "grp": "0.38", "ots": "11", "doors_no": "3689", "pos": "0", "angle": "60", "id_catab": "1", "price": 4000 }, { "address": "Луначарського вул., 1/2: 300 м от ст.метро \"Лівобережна\"", "id": "1074", "num": "617", "id_city": "1", "id_size": "1", "id_network": "493", "occupancy": "14f30r92r31f61r30f31r", "lon": "30.59395400", "lat": "50.45547500", "grp": "0.93", "ots": "28", "doors_no": "3695", "pos": "0", "angle": "240", "id_catab": "1", "price": 4000 }, { "address": "Московський просп. - Новокостянтинівська вул., ; №2", "id": "923", "num": "618", "id_city": "1", "id_size": "1", "id_network": "493", "occupancy": "14s30t92r122f31r", "lon": "30.48122568", "lat": "50.48809248", "grp": "1.32", "ots": "39", "doors_no": "3723", "pos": "0", "angle": "60", "id_catab": "1", "price": 4000 }, { "address": "Дорогожицька вул., 2", "id": "4724", "num": "619", "id_city": "1", "id_size": "1", "id_network": "493", "occupancy": "14s275f", "lon": "30.46262029", "lat": "50.47040837", "grp": "0.27", "ots": "8", "doors_no": "3727", "pos": "0", "angle": "120", "id_catab": "2", "price": 3800 }, { "address": "Миколи Бажана просп., .: 125 м до Харківської пл.", "id": "852", "num": "620", "id_city": "1", "id_size": "1", "id_network": "493", "occupancy": "14s30t31t30t184f", "lon": "30.67562300", "lat": "50.40289700", "grp": "1.07", "ots": "32", "doors_no": "3736", "pos": "-1", "angle": "75", "id_catab": "1", "price": 4000 }, { "address": "Миколи Бажана просп., : 300 м от Харківської площі", "id": "847", "num": "623", "id_city": "1", "id_size": "1", "id_network": "493", "occupancy": "289s", "lon": "30.67531000", "lat": "50.40343800", "grp": "0.98", "ots": "29", "doors_no": "20118", "pos": "1", "angle": "240", "id_catab": "1", "price": 4000 }, { "address": "Перемоги просп., : навпроти Національного медичного уіверситету - Перемоги просп.", "id": "887", "num": "629", "id_city": "1", "id_size": "1", "id_network": "493", "occupancy": "14s30r61r184f", "lon": "30.46004310", "lat": "50.45197066", "grp": "1.9", "ots": "57", "doors_no": "3784", "pos": "0", "angle": "75", "id_catab": "1", "price": 4000 }, { "address": "Миколи Бажана просп., : 200 м до транспортної розвязки з Дніпровскою набережною", "id": "857", "num": "630", "id_city": "1", "id_size": "1", "id_network": "493", "occupancy": "14s275r", "lon": "30.61795663", "lat": "50.39608661", "grp": "1.29", "ots": "39", "doors_no": "3791", "pos": "0", "angle": "255", "id_catab": "1", "price": 4000 }, { "address": "Миколи Бажана просп., 400 м до розвязки з Дніпровською набережною", "id": "859", "num": "632", "id_city": "1", "id_size": "1", "id_network": "493", "occupancy": "14s275r", "lon": "30.62427715", "lat": "50.39709618", "grp": "1.28", "ots": "39", "doors_no": "3804", "pos": "1", "angle": "255", "id_catab": "1", "price": 4000 }, { "address": "Миколи Бажана просп., : 50 метрів від Південного мосту; АЗС \"Лукойл\"", "id": "1576", "num": "634", "id_city": "1", "id_size": "1", "id_network": "493", "occupancy": "289s", "lon": "30.60098224", "lat": "50.39401400", "grp": "1.5899999999999999", "ots": "48", "doors_no": "3834", "pos": "0", "angle": "90", "id_catab": "1", "price": 4000 }, { "address": "Інтернаціональна пл.", "id": "770", "num": "642", "id_city": "1", "id_size": "1", "id_network": "493", "occupancy": "14s275f", "lon": "30.40563000", "lat": "50.48155700", "grp": "0.68", "ots": "20", "doors_no": "3874", "pos": "0", "angle": "180", "id_catab": "2", "price": 3800 }, { "address": "Інтернаціональна пл.", "id": "771", "num": "643", "id_city": "1", "id_size": "1", "id_network": "493", "occupancy": "14s30f31t214f", "lon": "30.40563000", "lat": "50.48155700", "grp": "0.7", "ots": "21", "doors_no": "3877", "pos": "0", "angle": "0", "id_catab": "1", "price": 4000 }, { "address": "Леніна просп. - Гагаріна вул.", "id": "203", "num": "662", "id_city": "6", "id_size": "1", "id_network": "493", "occupancy": "289s", "lon": "35.14527300", "lat": "47.83612200", "grp": "5.9", "ots": "50", "doors_no": "93484", "pos": "0", "angle": "90", "id_catab": "2", "price": 3800 }, { "address": "Космічна вул. - Харків-Сімферополь шосе", "id": "345", "num": "665", "id_city": "6", "id_size": "1", "id_network": "493", "occupancy": "14s275r", "lon": "35.23631100", "lat": "47.78630200", "grp": "1.8399999999999999", "ots": "16", "doors_no": "12736", "pos": "0", "angle": "225", "id_catab": "1", "price": 4000 }, { "address": "Миколи Бажана просп. - Дніпродзержинська вул., 130", "id": "853", "num": "672", "id_city": "1", "id_size": "1", "id_network": "493", "occupancy": "289s", "lon": "30.66926900", "lat": "50.40365500", "grp": "1.05", "ots": "32", "doors_no": "3897", "pos": "0", "angle": "255", "id_catab": "1", "price": 4000 }, { "address": "Миколи Бажана просп. - Дніпродзержинська вул., 130", "id": "854", "num": "673", "id_city": "1", "id_size": "1", "id_network": "493", "occupancy": "14s275f", "lon": "30.66926900", "lat": "50.40365500", "grp": "0.94", "ots": "28", "doors_no": "3902", "pos": "0", "angle": "120", "id_catab": "2", "price": 3800 }, { "address": "Тараса Шевченка вул., 12", "id": "393", "num": "682", "id_city": "4", "id_size": "1", "id_network": "493", "occupancy": "14s30r31r92f30r61f31r", "lon": "24.01728400", "lat": "49.84289100", "grp": "3.04", "ots": "18", "doors_no": "35570", "pos": "0", "angle": "255", "id_catab": "1", "price": 4000 }, { "address": "Харківська пл., в\"їзд на просп. Бажана Миколи", "id": "1272", "num": "689", "id_city": "1", "id_size": "1", "id_network": "493", "occupancy": "289s", "lon": "30.68126100", "lat": "50.40333200", "grp": "0.95", "ots": "29", "doors_no": "3937", "pos": "0", "angle": "285", "id_catab": "1", "price": 4000 }, { "address": "Миколи Бажана просп. - Лариси Руденко вул.", "id": "906", "num": "690", "id_city": "1", "id_size": "3", "id_network": "493", "occupancy": "289s", "lon": "30.64121854", "lat": "50.39919087", "grp": "1.17", "ots": "35", "doors_no": "3941", "pos": "0", "angle": "75", "id_catab": "1", "price": 4000 }, { "address": "Замарстинівська вул. - Гетьмана Мазепи вул.", "id": "342", "num": "698", "id_city": "4", "id_size": "1", "id_network": "493", "occupancy": "14s30r31t214f", "lon": "24.02284500", "lat": "49.86905800", "grp": "1.69", "ots": "10", "doors_no": "35576", "pos": "0", "angle": "300", "id_catab": "1", "price": 4000 }, { "address": "Вячеслава Чорновола просп. - Варшавська вул.", "id": "316", "num": "701", "id_city": "4", "id_size": "1", "id_network": "493", "occupancy": "105s184r", "lon": "24.01630500", "lat": "49.86677050", "grp": "3.71", "ots": "22", "doors_no": "86192", "pos": "0", "angle": "180", "id_catab": "1", "price": 4000 }, { "address": "Червонозоряний просп. - Кіровоградська вул.", "id": "918", "num": "723", "id_city": "1", "id_size": "1", "id_network": "493", "occupancy": "14s30r92r122r31r", "lon": "30.49179500", "lat": "50.40862774", "grp": "1.08", "ots": "32", "doors_no": "4112", "pos": "0", "angle": "90", "id_catab": "2", "price": 3800 }, { "address": "Червонозоряний просп. - Кіровоградська вул.", "id": "919", "num": "724", "id_city": "1", "id_size": "1", "id_network": "493", "occupancy": "289s", "lon": "30.49179500", "lat": "50.40862774", "grp": "1.38", "ots": "41", "doors_no": "4118", "pos": "0", "angle": "210", "id_catab": "1", "price": 4000 }, { "address": "Возз`єднання просп., : 600м від мосту ім.Патона", "id": "917", "num": "728", "id_city": "1", "id_size": "1", "id_network": "493", "occupancy": "14s214r61r", "lon": "30.60583251", "lat": "50.43612332", "grp": "1.6600000000000001", "ots": "50", "doors_no": "4124", "pos": "0", "angle": "300", "id_catab": "1", "price": 4000 }, { "address": "Броварський просп. - Визволителів просп., ; №4", "id": "909", "num": "730", "id_city": "1", "id_size": "1", "id_network": "493", "occupancy": "14s30r92r31f61r30f31r", "lon": "30.60813873", "lat": "50.45509969", "grp": "1.56", "ots": "47", "doors_no": "4133", "pos": "0", "angle": "285", "id_catab": "1", "price": 4000 }, { "address": "Героїв Сталінграда просп. - Московський просп.", "id": "1040", "num": "731", "id_city": "1", "id_size": "1", "id_network": "493", "occupancy": "289f", "lon": "30.52672015", "lat": "50.48739052", "grp": "0.76", "ots": "23", "doors_no": "4142", "pos": "0", "angle": "30", "id_catab": "1", "price": 4000 }, { "address": "Московський просп. - Героїв Сталінграда просп.", "id": "1038", "num": "733", "id_city": "1", "id_size": "7", "id_network": "489", "occupancy": "14s30r31r92r30f61r31f", "lon": "30.52572092", "lat": "50.48799361", "grp": "2.13", "ots": "64", "doors_no": "4155", "pos": "0", "angle": "90", "id_catab": "1", "price": 4000 }, { "address": "Васильківська вул. - Академіка Глушкова просп., :ст.метро\"Виставковий центр\"; навпроти НЦВЯ \"Експоцентр України\"", "id": "1030", "num": "744", "id_city": "1", "id_size": "1", "id_network": "493", "occupancy": "14s30r31r214f", "lon": "30.47702583", "lat": "50.38124694", "grp": "1.48", "ots": "44", "doors_no": "4242", "pos": "0", "angle": "270", "id_catab": "1", "price": 4000 }, { "address": "Васильківська вул. - Академіка Глушкова просп., :ст.метро\"Виставковий центр\"; навпроти НЦВЯ \"Експоцентр України\"", "id": "1031", "num": "745", "id_city": "1", "id_size": "1", "id_network": "493", "occupancy": "289s", "lon": "30.47702583", "lat": "50.38124694", "grp": "1.37", "ots": "41", "doors_no": "213179", "pos": "0", "angle": "150", "id_catab": "2", "price": 3800 }, { "address": "Богдана Хмельницького вул. - Мечнікова вул. - Госпітальна вул.", "id": "341", "num": "772", "id_city": "5", "id_size": "1", "id_network": "493", "occupancy": "289f", "lon": "30.72761600", "lat": "46.47143900", "grp": "2.77", "ots": "30", "doors_no": "31656", "pos": "0", "angle": "75", "id_catab": "1", "price": 4000 }, { "address": "Варненська вул. - 25-ої Чапаєвської Дивізії вул.", "id": "325", "num": "781", "id_city": "5", "id_size": "1", "id_network": "493", "occupancy": "289f", "lon": "30.71071750", "lat": "46.42139000", "grp": "2.27", "ots": "25", "doors_no": "31764", "pos": "0", "angle": "255", "id_catab": "2", "price": 3800 }, { "address": "Варненська вул. - 25-ої Чапаєвської Дивізії вул.", "id": "326", "num": "782", "id_city": "5", "id_size": "1", "id_network": "493", "occupancy": "14f61t214f", "lon": "30.71071750", "lat": "46.42139000", "grp": "2.96", "ots": "33", "doors_no": "31762", "pos": "0", "angle": "15", "id_catab": "1", "price": 4000 }, { "address": "Сeредньофонтанська пл - Гагаріна просп. - Середньофонтанська вул.", "id": "153", "num": "788", "id_city": "5", "id_size": "1", "id_network": "493", "occupancy": "14s30r123f30r61f31r", "lon": "30.73852800", "lat": "46.45247500", "grp": "2.05", "ots": "22", "doors_no": "31776", "pos": "0", "angle": "150", "id_catab": "1", "price": 4000 }, { "address": "Повітрофлотський просп., :Повітрофлотський міст - Перемоги пл.", "id": "743", "num": "803", "id_city": "1", "id_size": "1", "id_network": "493", "occupancy": "14s30t245f", "lon": "30.48214051", "lat": "50.44763501", "grp": "1.04", "ots": "31", "doors_no": "4476", "pos": "0", "angle": "345", "id_catab": "2", "price": 3800 }, { "address": "Кіквідзе вул. - Саперно-Слобідська вул., : №2", "id": "1165", "num": "851", "id_city": "1", "id_size": "1", "id_network": "493", "occupancy": "14s214r61r", "lon": "30.55353456", "lat": "50.40114035", "grp": "1.27", "ots": "38", "doors_no": "4638", "pos": "0", "angle": "255", "id_catab": "1", "price": 4000 }, { "address": "Дружби народів бульв., : напроти магазину \"Yamaha\"", "id": "733", "num": "854", "id_city": "1", "id_size": "1", "id_network": "493", "occupancy": "14s30r92r122f31r", "lon": "30.52863800", "lat": "50.41134200", "grp": "1.55", "ots": "47", "doors_no": "4761", "pos": "0", "angle": "120", "id_catab": "1", "price": 4000 }, { "address": "Червонозоряний просп., 100 м до вул. Кайсарова - Кайсарова вул.", "id": "776", "num": "869", "id_city": "1", "id_size": "8", "id_network": "493", "occupancy": "289f", "lon": "30.49315653", "lat": "50.40784003", "grp": "0.77", "ots": "23", "doors_no": "4806", "pos": "0", "angle": "60", "id_catab": "1", "price": 4000 }, { "address": "Ленінградська пл., в\"їзд з  просп. Возз\"єднання", "id": "778", "num": "878", "id_city": "1", "id_size": "1", "id_network": "493", "occupancy": "289s", "lon": "30.62744200", "lat": "50.44132700", "grp": "0.97", "ots": "29", "doors_no": "4826", "pos": "0", "angle": "75", "id_catab": "2", "price": 3800 }, { "address": "Московський просп., 11", "id": "988", "num": "883", "id_city": "1", "id_size": "1", "id_network": "493", "occupancy": "14s30t31t214f", "lon": "30.48003700", "lat": "50.48841522", "grp": "1.8199999999999998", "ots": "55", "doors_no": "4845", "pos": "0", "angle": "285", "id_catab": "1", "price": 4000 }, { "address": "Новокостянтинівська вул. - Нахімова вул.", "id": "1217", "num": "2094", "id_city": "1", "id_size": "1", "id_network": "493", "occupancy": "14s275r", "lon": "30.48915092", "lat": "50.48076148", "grp": "0.77", "ots": "23", "doors_no": "4879", "pos": "0", "angle": "255", "id_catab": "2", "price": 3800 }, { "address": "Новокостянтинівська вул. - Нахімова вул.", "id": "1216", "num": "886", "id_city": "1", "id_size": "1", "id_network": "493", "occupancy": "289s", "lon": "30.48915092", "lat": "50.48076148", "grp": "0.84", "ots": "25", "doors_no": "4877", "pos": "0", "angle": "15", "id_catab": "1", "price": 4000 }, { "address": "Горького пл. - Волгоградська вул.", "id": "1284", "num": "887", "id_city": "11", "id_size": "1", "id_network": "493", "occupancy": "14s30r31t92f30r61f31r", "lon": "33.39165300", "lat": "47.91180000", "grp": "2.82", "ots": "16", "doors_no": "167518", "pos": "0", "angle": "150", "id_catab": "1", "price": 4000 }, { "address": "200-річчя Кривого Рогу просп., 2", "id": "1389", "num": "892", "id_city": "11", "id_size": "1", "id_network": "493", "occupancy": "14s30r31t92f30r61f31r", "lon": "33.43582800", "lat": "47.97135800", "grp": "3.2", "ots": "18", "doors_no": "167544", "pos": "0", "angle": "330", "id_catab": "1", "price": 4000 }, { "address": "Сонячний м-н", "id": "1392", "num": "893", "id_city": "11", "id_size": "1", "id_network": "493", "occupancy": "14s30r245f", "lon": "33.45529900", "lat": "47.95651900", "grp": "0.97", "ots": "5", "doors_no": "171568", "pos": "0", "angle": "45", "id_catab": "1", "price": 4000 }, { "address": "Фрунзе вул., (зуп. \"Панаса Мирного\")", "id": "386", "num": "911", "id_city": "23", "id_size": "1", "id_network": "493", "occupancy": "14f30t245f", "lon": "34.53542700", "lat": "49.57241100", "grp": "9.95", "ots": "24", "doors_no": "40917", "pos": "0", "angle": "150", "id_catab": "1", "price": 4000 }, { "address": "Привокзальний майдан, (З/Д вокзал)", "id": "37", "num": "945", "id_city": "24", "id_size": "1", "id_network": "493", "occupancy": "14f30t31t214f", "lon": "26.27457312", "lat": "50.61161731", "grp": "6.64", "ots": "12", "doors_no": "285187", "pos": "0", "angle": "250", "id_catab": "1", "price": 4000 }, { "address": "Замкова вул., 24", "id": "691", "num": "947", "id_city": "24", "id_size": "1", "id_network": "493", "occupancy": "14f30r31t214f", "lon": "26.24404850", "lat": "50.61835250", "grp": "5.74", "ots": "10", "doors_no": "65359", "pos": "0", "angle": "180", "id_catab": "2", "price": 3800 }, { "address": "Львівське шосе, 13", "id": "70", "num": "954", "id_city": "20", "id_size": "1", "id_network": "493", "occupancy": "289s", "lon": "26.96498400", "lat": "49.41754600", "grp": "6.65", "ots": "11", "doors_no": "59111", "pos": "0", "angle": "300", "id_catab": "2", "price": 3800 }, { "address": "Зарічанська вул., 12", "id": "540", "num": "961", "id_city": "20", "id_size": "1", "id_network": "493", "occupancy": "44s31t214f", "lon": "27.00101800", "lat": "49.43277000", "grp": "5.27", "ots": "9", "doors_no": "186031", "pos": "0", "angle": "90", "id_catab": "1", "price": 4000 }, { "address": "Зарічанська вул., 12", "id": "541", "num": "962", "id_city": "20", "id_size": "1", "id_network": "493", "occupancy": "14f122r61f61r31f", "lon": "27.00101800", "lat": "49.43277000", "grp": "5.27", "ots": "9", "doors_no": "186033", "pos": "0", "angle": "270", "id_catab": "2", "price": 3800 }, { "address": "Прибузька вул., 12", "id": "562", "num": "967", "id_city": "20", "id_size": "1", "id_network": "493", "occupancy": "14s30t31t214f", "lon": "26.98693100", "lat": "49.43022600", "grp": "5.13", "ots": "9", "doors_no": "59001", "pos": "0", "angle": "75", "id_catab": "1", "price": 4000 }, { "address": "Хотинська вул. - Заводська вул.", "id": "661", "num": "994", "id_city": "15", "id_size": "1", "id_network": "493", "occupancy": "14f30r245f", "lon": "25.92218500", "lat": "48.31609000", "grp": "3.38", "ots": "6", "doors_no": "60572", "pos": "0", "angle": "165", "id_catab": "1", "price": 4000 }, { "address": "Гагаріна вул., (З/Д вокзал)", "id": "456", "num": "995", "id_city": "15", "id_size": "1", "id_network": "493", "occupancy": "14f30r31r214f", "lon": "25.92927650", "lat": "48.30075750", "grp": "7.08", "ots": "13", "doors_no": "60507", "pos": "0", "angle": "240", "id_catab": "2", "price": 3800 }, { "address": "Героїв Майдану вул., 200", "id": "537", "num": "999", "id_city": "15", "id_size": "1", "id_network": "493", "occupancy": "14s91r184f", "lon": "25.92638119", "lat": "48.26609901", "grp": "8.64", "ots": "16", "doors_no": "60456", "pos": "0", "angle": "0", "id_catab": "1", "price": 4000 }, { "address": "Набережне шосе - Дружби народів бульв.", "id": "2432", "num": "1000.3", "id_city": "1", "id_size": "4", "id_network": "489", "occupancy": "14f30r245f", "lon": "30.56931500", "lat": "50.42398900", "grp": "3.37", "ots": "101", "doors_no": "153556", "pos": "0", "angle": "180", "id_catab": "1", "price": 4000 }, { "address": "Броварський просп., між ст. метро \"Лісова\" і \"Чернігівська\"", "id": "719", "num": "1002", "id_city": "1", "id_size": "1", "id_network": "493", "occupancy": "14s30r31r214f", "lon": "30.63754400", "lat": "50.46263800", "grp": "0.86", "ots": "26", "doors_no": "5138", "pos": "0", "angle": "75", "id_catab": "1", "price": 4000 }, { "address": "Броварський просп., між ст. метро \"Лісова\" і \"Чернігівська\"", "id": "720", "num": "1003", "id_city": "1", "id_size": "1", "id_network": "493", "occupancy": "289f", "lon": "30.63754400", "lat": "50.46263800", "grp": "0.79", "ots": "24", "doors_no": "5142", "pos": "0", "angle": "315", "id_catab": "2", "price": 3800 }, { "address": "Лайоша Гавро вул. - Московський просп.", "id": "1189", "num": "1006", "id_city": "1", "id_size": "1", "id_network": "493", "occupancy": "14s30t245f", "lon": "30.50652353", "lat": "50.48903252", "grp": "1.42", "ots": "43", "doors_no": "5168", "pos": "0", "angle": "225", "id_catab": "1", "price": 4000 }, { "address": "Харківське шосе - Російська вул.", "id": "1273", "num": "1033", "id_city": "1", "id_size": "1", "id_network": "493", "occupancy": "289s", "lon": "30.65036569", "lat": "50.42210801", "grp": "0.9", "ots": "27", "doors_no": "5285", "pos": "0", "angle": "45", "id_catab": "2", "price": 3800 }, { "address": "Олени Теліги вул., : 300 м до вул. Кирилівської", "id": "1094", "num": "1039", "id_city": "1", "id_size": "1", "id_network": "493", "occupancy": "289s", "lon": "30.47092300", "lat": "50.48422700", "grp": "1.71", "ots": "51", "doors_no": "2994", "pos": "0", "angle": "105", "id_catab": "1", "price": 4000 }, { "address": "Раїси Окіпної вул., : ст.метро \"Лівобережна\"", "id": "1222", "num": "9659.3", "id_city": "1", "id_size": "1", "id_network": "492", "occupancy": "14s30t245r", "lon": "30.59781100", "lat": "50.45027400", "grp": "0.51", "ots": "15", "doors_no": "5332", "pos": "0", "angle": "330", "id_catab": "1", "price": 4000 }, { "address": "Січових Стрільців вул., 74", "id": "626", "num": "1087", "id_city": "12", "id_size": "1", "id_network": "493", "occupancy": "289s", "lon": "24.71305200", "lat": "48.91903200", "grp": "10.61", "ots": "16", "doors_no": "88922", "pos": "0", "angle": "90", "id_catab": "2", "price": 3800 }, { "address": "Макарова вул. - Титова вул.", "id": "444", "num": "1105", "id_city": "10", "id_size": "1", "id_network": "493", "occupancy": "289s", "lon": "35.00026900", "lat": "48.43261800", "grp": "1.9300000000000002", "ots": "19", "doors_no": "17024", "pos": "0", "angle": "255", "id_catab": "1", "price": 4000 }, { "address": "Гагаріна просп., 40", "id": "224", "num": "1107.3", "id_city": "10", "id_size": "1", "id_network": "492", "occupancy": "14s122r31f61r30f31r", "lon": "35.04915825", "lat": "48.43904350", "grp": "1.47", "ots": "15", "doors_no": "17028", "pos": "0", "angle": "330", "id_catab": "1", "price": 4000 }, { "address": "Київська вул., 74", "id": "1415", "num": "1149", "id_city": "29", "id_size": "1", "id_network": "493", "occupancy": "75s214f", "lon": "28.67568850", "lat": "50.26071750", "grp": "10.51", "ots": "21", "doors_no": "53393", "pos": "0", "angle": "120", "id_catab": "1", "price": 4000 }, { "address": "Київська вул., 74", "id": "1416", "num": "1150", "id_city": "29", "id_size": "1", "id_network": "493", "occupancy": "14s30r245f", "lon": "28.67568850", "lat": "50.26071750", "grp": "9.79", "ots": "20", "doors_no": "53396", "pos": "0", "angle": "300", "id_catab": "2", "price": 3800 }, { "address": "Перемоги пл., 7", "id": "1417", "num": "1151", "id_city": "29", "id_size": "1", "id_network": "493", "occupancy": "14s61r153f61r", "lon": "28.65915925", "lat": "50.25762775", "grp": "2.54", "ots": "5", "doors_no": "53429", "pos": "0", "angle": "210", "id_catab": "1", "price": 4000 }, { "address": "Перемоги пл., 7", "id": "1418", "num": "1152", "id_city": "29", "id_size": "1", "id_network": "493", "occupancy": "14s30f31t214f", "lon": "28.65915925", "lat": "50.25762775", "grp": "2.54", "ots": "5", "doors_no": "53427", "pos": "0", "angle": "210", "id_catab": "1", "price": 4000 }, { "address": "Перемоги пл., 7", "id": "1419", "num": "1153", "id_city": "29", "id_size": "1", "id_network": "493", "occupancy": "289f", "lon": "28.65915925", "lat": "50.25762775", "grp": "2.26", "ots": "5", "doors_no": "53425", "pos": "0", "angle": "30", "id_catab": "1", "price": 4000 }, { "address": "Гагаріна вул. - Велика Бердичівська вул.", "id": "1421", "num": "1154", "id_city": "29", "id_size": "1", "id_network": "493", "occupancy": "289f", "lon": "28.68167600", "lat": "50.24686550", "grp": "1.33", "ots": "3", "doors_no": "98849", "pos": "0", "angle": "240", "id_catab": "1", "price": 4000 }, { "address": "Гагаріна вул. - Велика Бердичівська вул.", "id": "1422", "num": "1155", "id_city": "29", "id_size": "1", "id_network": "493", "occupancy": "289f", "lon": "28.68167600", "lat": "50.24686550", "grp": "1.24", "ots": "2", "doors_no": "98851", "pos": "0", "angle": "60", "id_catab": "2", "price": 3800 }, { "address": "Новозаводська вул. - Миру просп.", "id": "580", "num": "1156", "id_city": "22", "id_size": "1", "id_network": "493", "occupancy": "289f", "lon": "32.06049700", "lat": "46.93858500", "grp": "3.04", "ots": "12", "doors_no": "56937", "pos": "0", "angle": "240", "id_catab": "1", "price": 4000 }, { "address": "Леніна просп. - Генерала Карпенка вул.", "id": "206", "num": "1159", "id_city": "22", "id_size": "1", "id_network": "493", "occupancy": "289f", "lon": "31.95739700", "lat": "46.96918900", "grp": "5.86", "ots": "22", "doors_no": "56779", "pos": "0", "angle": "270", "id_catab": "1", "price": 4000 }, { "address": "Героїв Сталінграда просп., 89", "id": "241", "num": "1162", "id_city": "22", "id_size": "1", "id_network": "493", "occupancy": "14f30r31t214f", "lon": "31.99657400", "lat": "47.00287500", "grp": "4.23", "ots": "16", "doors_no": "56643", "pos": "0", "angle": "330", "id_catab": "1", "price": 4000 }, { "address": "Героїв Сталінграда просп. - Київський пров.", "id": "237", "num": "1166", "id_city": "22", "id_size": "1", "id_network": "493", "occupancy": "44f61t184f", "lon": "31.99692400", "lat": "47.00105700", "grp": "4.46", "ots": "17", "doors_no": "56620", "pos": "0", "angle": "330", "id_catab": "1", "price": 4000 }, { "address": "Героїв Сталінграда просп. - Парусний пров.", "id": "238", "num": "1167", "id_city": "22", "id_size": "1", "id_network": "493", "occupancy": "14f61t214f", "lon": "31.99784600", "lat": "46.99674500", "grp": "4.9399999999999995", "ots": "19", "doors_no": "56612", "pos": "0", "angle": "165", "id_catab": "1", "price": 4000 }, { "address": "Довженка вул. - Сухомлинського вул.", "id": "615", "num": "1178", "id_city": "12", "id_size": "1", "id_network": "493", "occupancy": "14s275f", "lon": "24.68691700", "lat": "48.90293100", "grp": "7.76", "ots": "12", "doors_no": "90305", "pos": "0", "angle": "300", "id_catab": "2", "price": 3800 }, { "address": "Степана Бандери вул. - Ребета вул.", "id": "639", "num": "1179", "id_city": "12", "id_size": "1", "id_network": "493", "occupancy": "14s30r31t214f", "lon": "24.71432235", "lat": "48.90596659", "grp": "3.73", "ots": "6", "doors_no": "246163", "pos": "0", "angle": "210", "id_catab": "1", "price": 4000 }, { "address": "Овідіопільська дорога - Аеропортовская вул.", "id": "109", "num": "1202", "id_city": "5", "id_size": "10", "id_network": "493", "occupancy": "14s61f92r122f", "lon": "30.65932687", "lat": "46.45051076", "grp": "2.39", "ots": "26", "doors_no": "142391", "pos": "0", "angle": "275", "id_catab": "2", "price": 3800 }, { "address": "Адміральський просп., 1а", "id": "16", "num": "1203", "id_city": "5", "id_size": "1", "id_network": "493", "occupancy": "14s30r31f92r30r61f31r", "lon": "30.74345192", "lat": "46.43698433", "grp": "1.71", "ots": "19", "doors_no": "31810", "pos": "0", "angle": "330", "id_catab": "1", "price": 4000 }, { "address": "Адміральський просп., 1а", "id": "17", "num": "1204", "id_city": "5", "id_size": "1", "id_network": "493", "occupancy": "75s214f", "lon": "30.74345192", "lat": "46.43698433", "grp": "1.71", "ots": "19", "doors_no": "31808", "pos": "0", "angle": "150", "id_catab": "1", "price": 4000 }, { "address": "Канатна вул. - Гагаріна просп. - Сегедська вул.", "id": "490", "num": "1211", "id_city": "5", "id_size": "10", "id_network": "493", "occupancy": "75s92r122r", "lon": "30.74438500", "lat": "46.45473500", "grp": "3.84", "ots": "42", "doors_no": "140423", "pos": "0", "angle": "120", "id_catab": "2", "price": 3800 }, { "address": "Розумовська вул. - Комітетська вул.", "id": "621", "num": "1213", "id_city": "5", "id_size": "1", "id_network": "493", "occupancy": "14f30r31t214f", "lon": "30.72097000", "lat": "46.47390700", "grp": "1.35", "ots": "15", "doors_no": "31821", "pos": "0", "angle": "300", "id_catab": "2", "price": 3800 }, { "address": "Героїв Громадянської Війни вул. - Калинова вул.", "id": "235", "num": "1227", "id_city": "10", "id_size": "1", "id_network": "493", "occupancy": "289s", "lon": "35.03666908", "lat": "48.52091474", "grp": "1.21", "ots": "12", "doors_no": "17038", "pos": "0", "angle": "270", "id_catab": "1", "price": 4000 }, { "address": "Набережна магіст., (речовий ринок)", "id": "99", "num": "1280", "id_city": "6", "id_size": "1", "id_network": "493", "occupancy": "14s275r", "lon": "35.12429950", "lat": "47.83013600", "grp": "2.39", "ots": "20", "doors_no": "12739", "pos": "0", "angle": "75", "id_catab": "1", "price": 4000 }, { "address": "Набережна магіст., (речовий ринок)", "id": "100", "num": "1281", "id_city": "6", "id_size": "1", "id_network": "493", "occupancy": "289f", "lon": "35.12429950", "lat": "47.83013600", "grp": "2.2800000000000002", "ots": "19", "doors_no": "12740", "pos": "0", "angle": "255", "id_catab": "2", "price": 3800 }, { "address": "Перемоги вул. - Яценка вул.", "id": "602", "num": "1282", "id_city": "6", "id_size": "1", "id_network": "493", "occupancy": "14s275r", "lon": "35.14575250", "lat": "47.83212500", "grp": "4.09", "ots": "35", "doors_no": "25729", "pos": "0", "angle": "330", "id_catab": "2", "price": 3800 }, { "address": "Перемоги вул., 91 - Центральний бульв.", "id": "600", "num": "1283", "id_city": "6", "id_size": "1", "id_network": "493", "occupancy": "289f", "lon": "35.13136600", "lat": "47.83235450", "grp": "2.2", "ots": "19", "doors_no": "12752", "pos": "0", "angle": "45", "id_catab": "2", "price": 3800 }, { "address": "Перемоги вул., 91 - Центральний бульв.", "id": "601", "num": "1284", "id_city": "6", "id_size": "1", "id_network": "493", "occupancy": "14s275r", "lon": "35.13136600", "lat": "47.83235450", "grp": "2.24", "ots": "19", "doors_no": "12750", "pos": "0", "angle": "225", "id_catab": "1", "price": 4000 }, { "address": "Харків-Сімферополь шосе", "id": "306", "num": "1287", "id_city": "6", "id_size": "1", "id_network": "493", "occupancy": "14f30t10r143f15r77f", "lon": "35.23922467", "lat": "47.84598833", "grp": "1.19", "ots": "10", "doors_no": "12758", "pos": "0", "angle": "0", "id_catab": "1", "price": 4000 }, { "address": "Харків-Сімферополь шосе", "id": "307", "num": "1288", "id_city": "6", "id_size": "1", "id_network": "493", "occupancy": "14f122r61f61r31f", "lon": "35.23922467", "lat": "47.84598833", "grp": "1.41", "ots": "12", "doors_no": "25735", "pos": "0", "angle": "225", "id_catab": "2", "price": 3800 }, { "address": "Набережна магіст., (міст Преображенського)", "id": "89", "num": "1289", "id_city": "6", "id_size": "1", "id_network": "493", "occupancy": "14f30r10r143f15r77f", "lon": "35.09273100", "lat": "47.84790400", "grp": "2", "ots": "17", "doors_no": "12764", "pos": "0", "angle": "75", "id_catab": "1", "price": 4000 }, { "address": "Енвера Ахсарова вул., 18", "id": "427", "num": "1294.3", "id_city": "3", "id_size": "1", "id_network": "492", "occupancy": "289f", "lon": "36.21193160", "lat": "50.04735209", "grp": "2.52", "ots": "29", "doors_no": "268570", "pos": "0", "angle": "225", "id_catab": "2", "price": 3800 }, { "address": "Енвера Ахсарова вул., 18", "id": "428", "num": "1295.3", "id_city": "3", "id_size": "1", "id_network": "492", "occupancy": "14f30t245f", "lon": "36.21193160", "lat": "50.04735209", "grp": "2.06", "ots": "24", "doors_no": "268564", "pos": "0", "angle": "45", "id_catab": "1", "price": 4000 }, { "address": "Харківське шосе - Тростянецька вул., ; №1", "id": "1275", "num": "1344", "id_city": "1", "id_size": "1", "id_network": "493", "occupancy": "14s214r61r", "lon": "30.65432371", "lat": "50.41975448", "grp": "0.94", "ots": "28", "doors_no": "5516", "pos": "0", "angle": "225", "id_catab": "1", "price": 4000 }, { "address": "Набережна магіст. - Українська вул.", "id": "98", "num": "1354", "id_city": "6", "id_size": "1", "id_network": "493", "occupancy": "14f30t245f", "lon": "35.15119900", "lat": "47.82174500", "grp": "1.18", "ots": "10", "doors_no": "12771", "pos": "0", "angle": "330", "id_catab": "1", "price": 4000 }, { "address": "Набережна магіст. - Луначарського вул.", "id": "97", "num": "1356", "id_city": "6", "id_size": "1", "id_network": "493", "occupancy": "289s", "lon": "35.17603400", "lat": "47.78925800", "grp": "1.77", "ots": "15", "doors_no": "96359", "pos": "0", "angle": "0", "id_catab": "1", "price": 4000 }, { "address": "Набережна магіст. - Глісерна вул.", "id": "96", "num": "1360", "id_city": "6", "id_size": "1", "id_network": "493", "occupancy": "289s", "lon": "35.17295000", "lat": "47.81398100", "grp": "1.77", "ots": "15", "doors_no": "96359", "pos": "0", "angle": "165", "id_catab": "1", "price": 4000 }, { "address": "Леніна просп. - Жовтнева вул.", "id": "256", "num": "1361", "id_city": "6", "id_size": "1", "id_network": "493", "occupancy": "289s", "lon": "35.18658300", "lat": "47.80755800", "grp": "1.04", "ots": "9", "doors_no": "91866", "pos": "0", "angle": "15", "id_catab": "1", "price": 4000 }, { "address": "Героїв Сталінграда вул. - Яценка вул.", "id": "487", "num": "1363", "id_city": "6", "id_size": "1", "id_network": "493", "occupancy": "14s30r92r31f61r30f31r", "lon": "35.15400100", "lat": "47.82946200", "grp": "1.6099999999999999", "ots": "14", "doors_no": "12789", "pos": "0", "angle": "225", "id_catab": "1", "price": 4000 }, { "address": "Яценка вул. - Козача вул.", "id": "485", "num": "1364", "id_city": "6", "id_size": "1", "id_network": "493", "occupancy": "14f30r61t184f", "lon": "35.15306150", "lat": "47.82898600", "grp": "2", "ots": "17", "doors_no": "12794", "pos": "0", "angle": "240", "id_catab": "2", "price": 3800 }, { "address": "Яценка вул. - Козача вул.", "id": "486", "num": "1365", "id_city": "6", "id_size": "1", "id_network": "493", "occupancy": "14s30r31t92f30r61f31r", "lon": "35.15306150", "lat": "47.82898600", "grp": "1.67", "ots": "14", "doors_no": "12791", "pos": "0", "angle": "60", "id_catab": "1", "price": 4000 }, { "address": "8-го Березня вул. - Іванова вул.", "id": "478", "num": "1366", "id_city": "6", "id_size": "1", "id_network": "493", "occupancy": "14s30r31r214f", "lon": "35.19945900", "lat": "47.83163300", "grp": "2.3", "ots": "20", "doors_no": "12796", "pos": "0", "angle": "0", "id_catab": "1", "price": 4000 }, { "address": "Радянський просп. - Ювілейний просп.", "id": "292", "num": "1372", "id_city": "6", "id_size": "1", "id_network": "493", "occupancy": "14f30t245f", "lon": "35.05425150", "lat": "47.82192350", "grp": "1.72", "ots": "15", "doors_no": "94105", "pos": "0", "angle": "135", "id_catab": "1", "price": 4000 }, { "address": "Радянський просп. - Ювілейний просп.", "id": "293", "num": "1373", "id_city": "6", "id_size": "1", "id_network": "493", "occupancy": "14s275r", "lon": "35.05425150", "lat": "47.82192350", "grp": "1.72", "ots": "15", "doors_no": "12804", "pos": "0", "angle": "135", "id_catab": "1", "price": 4000 }, { "address": "Ювілейний просп. - Лахтинська вул.", "id": "578", "num": "1376", "id_city": "6", "id_size": "1", "id_network": "493", "occupancy": "14f30r31t214f", "lon": "35.04084900", "lat": "47.81629250", "grp": "1.41", "ots": "12", "doors_no": "12811", "pos": "0", "angle": "285", "id_catab": "2", "price": 3800 }, { "address": "Ювілейний просп. - Лахтинська вул.", "id": "579", "num": "1377", "id_city": "6", "id_size": "1", "id_network": "493", "occupancy": "14s30r31t92f30r61f31r", "lon": "35.04084900", "lat": "47.81629250", "grp": "1.37", "ots": "12", "doors_no": "12813", "pos": "0", "angle": "105", "id_catab": "1", "price": 4000 }, { "address": "Патріотична вул. - Фестивальна пл.", "id": "592", "num": "1397", "id_city": "6", "id_size": "1", "id_network": "493", "occupancy": "14f30t245f", "lon": "35.13848350", "lat": "47.83469650", "grp": "0.99", "ots": "8", "doors_no": "12823", "pos": "0", "angle": "240", "id_catab": "1", "price": 4000 }, { "address": "Патріотична вул. - Фестивальна пл.", "id": "593", "num": "1398", "id_city": "6", "id_size": "1", "id_network": "493", "occupancy": "14f30r61t184f", "lon": "35.13848350", "lat": "47.83469650", "grp": "0.88", "ots": "8", "doors_no": "12827", "pos": "0", "angle": "60", "id_catab": "1", "price": 4000 }, { "address": "Пушкіна просп. - Шмідта вул.", "id": "611", "num": "1411.3", "id_city": "10", "id_size": "1", "id_network": "492", "occupancy": "14s30f61t184f", "lon": "35.02089200", "lat": "48.46678200", "grp": "1.45", "ots": "14", "doors_no": "17042", "pos": "0", "angle": "345", "id_catab": "1", "price": 4000 }, { "address": "Святослава Хороброго вул. - Виконкомівська вул.", "id": "680", "num": "1413", "id_city": "10", "id_size": "1", "id_network": "493", "occupancy": "14f30t31t214f", "lon": "35.04660400", "lat": "48.45697000", "grp": "1.43", "ots": "14", "doors_no": "17064", "pos": "0", "angle": "300", "id_catab": "1", "price": 4000 }, { "address": "Святослава Хороброго вул. - Володарського вул.", "id": "679", "num": "1414", "id_city": "10", "id_size": "1", "id_network": "493", "occupancy": "14s122r61f61r31f", "lon": "35.04634900", "lat": "48.45694300", "grp": "1.35", "ots": "14", "doors_no": "17066", "pos": "0", "angle": "105", "id_catab": "1", "price": 4000 }, { "address": "Святослава Хороброго вул. - Артема вул.", "id": "678", "num": "1415", "id_city": "10", "id_size": "1", "id_network": "493", "occupancy": "289s", "lon": "35.04399600", "lat": "48.45809600", "grp": "1.32", "ots": "13", "doors_no": "17068", "pos": "0", "angle": "255", "id_catab": "1", "price": 4000 }, { "address": "Ломана вул. - Січеславська Набережна вул.", "id": "550", "num": "1416", "id_city": "10", "id_size": "1", "id_network": "493", "occupancy": "14s275r", "lon": "35.05245500", "lat": "48.46894700", "grp": "1.54", "ots": "15", "doors_no": "17070", "pos": "0", "angle": "165", "id_catab": "1", "price": 4000 }, { "address": "Ломана вул. - Січеславська Набережна вул.", "id": "551", "num": "1417", "id_city": "10", "id_size": "1", "id_network": "493", "occupancy": "75s214r", "lon": "35.05268700", "lat": "48.46893200", "grp": "1.47", "ots": "15", "doors_no": "17072", "pos": "0", "angle": "180", "id_catab": "1", "price": 4000 }, { "address": "Запорізьке шосе", "id": "39", "num": "1418", "id_city": "10", "id_size": "1", "id_network": "493", "occupancy": "14s122r61f61r31f", "lon": "35.02321800", "lat": "48.41701100", "grp": "2.98", "ots": "30", "doors_no": "240580", "pos": "0", "angle": "30", "id_catab": "1", "price": 4000 }, { "address": "Запорізьке шосе", "id": "40", "num": "1419", "id_city": "10", "id_size": "1", "id_network": "493", "occupancy": "289f", "lon": "35.02321800", "lat": "48.41701100", "grp": "2.63", "ots": "26", "doors_no": "240595", "pos": "0", "angle": "210", "id_catab": "2", "price": 3800 }, { "address": "Либідська пл., ТРЦ \"Оcean PLaza\" - Велика Васильківська (Червоноармійська) вул., 136", "id": "1023", "num": "9441.3", "id_city": "1", "id_size": "1", "id_network": "492", "occupancy": "289f", "lon": "30.52402564", "lat": "50.41353082", "grp": "0.19", "ots": "6", "doors_no": "194418", "pos": "0", "angle": "120", "id_catab": "1", "price": 4000 }, { "address": "Братиславська вул., : ринок \"Юність\"; №2 - Лісовий просп., : ринок \"Юність\"; №2", "id": "1129", "num": "1447", "id_city": "1", "id_size": "1", "id_network": "493", "occupancy": "14s275r", "lon": "30.61786553", "lat": "50.47841128", "grp": "1.07", "ots": "32", "doors_no": "4554", "pos": "0", "angle": "165", "id_catab": "1", "price": 4000 }, { "address": "Братиславська вул. - Лісовий просп., : ринок \"Юність\"; №1", "id": "1391", "num": "1449", "id_city": "1", "id_size": "1", "id_network": "493", "occupancy": "289s", "lon": "30.61743966", "lat": "50.47826062", "grp": "1.45", "ots": "43", "doors_no": "20145", "pos": "0", "angle": "0", "id_catab": "1", "price": 4000 }, { "address": "Слави бульв. - Героїв просп.", "id": "20", "num": "1462", "id_city": "10", "id_size": "1", "id_network": "493", "occupancy": "14s30r31r61r31f61r30f31r", "lon": "35.06435650", "lat": "48.41181500", "grp": "2.31", "ots": "23", "doors_no": "17096", "pos": "0", "angle": "30", "id_catab": "1", "price": 4000 }, { "address": "Слави бульв. - Героїв просп.", "id": "21", "num": "1463", "id_city": "10", "id_size": "1", "id_network": "493", "occupancy": "14s30f245r", "lon": "35.06435650", "lat": "48.41181500", "grp": "1.69", "ots": "17", "doors_no": "17098", "pos": "0", "angle": "210", "id_catab": "2", "price": 3800 }, { "address": "Володимира Маяковського просп. - Генерала Ватутіна просп., №2", "id": "947", "num": "1468", "id_city": "1", "id_size": "1", "id_network": "493", "occupancy": "14s61t214f", "lon": "30.58962913", "lat": "50.49715400", "grp": "1.09", "ots": "33", "doors_no": "5575", "pos": "0", "angle": "180", "id_catab": "1", "price": 4000 }, { "address": "Генерала Ватутіна просп., : 200 м до р. Десенки", "id": "945", "num": "1470", "id_city": "1", "id_size": "1", "id_network": "493", "occupancy": "289s", "lon": "30.58022193", "lat": "50.49560665", "grp": "1.8599999999999999", "ots": "56", "doors_no": "12367", "pos": "0", "angle": "255", "id_catab": "1", "price": 4000 }, { "address": "Леся Курбаса просп., залізнична платформа \"Борщагівка\"", "id": "1107", "num": "1525", "id_city": "1", "id_size": "1", "id_network": "493", "occupancy": "289s", "lon": "30.39891827", "lat": "50.43261884", "grp": "1.02", "ots": "30", "doors_no": "5586", "pos": "0", "angle": "105", "id_catab": "1", "price": 4000 }, { "address": "Вадима Гетьмана вул., : біля буд.№44", "id": "1055", "num": "1529", "id_city": "1", "id_size": "1", "id_network": "493", "occupancy": "3s11f30r31t214f", "lon": "30.44578366", "lat": "50.43912450", "grp": "1.3900000000000001", "ots": "42", "doors_no": "5596", "pos": "0", "angle": "30", "id_catab": "1", "price": 4000 }, { "address": "Довженка вул. - Ежена Потьє вул.", "id": "1148", "num": "1545", "id_city": "1", "id_size": "1", "id_network": "493", "occupancy": "14s30r92r31r61r30r31r", "lon": "30.44671575", "lat": "50.45761608", "grp": "1.79", "ots": "54", "doors_no": "5599", "pos": "0", "angle": "345", "id_catab": "1", "price": 4000 }, { "address": "Харківська пл., ; №2", "id": "1260", "num": "1556", "id_city": "1", "id_size": "1", "id_network": "493", "occupancy": "14s91t184f", "lon": "30.68376707", "lat": "50.40252555", "grp": "0.85", "ots": "25", "doors_no": "5608", "pos": "-1", "angle": "240", "id_catab": "1", "price": 4000 }, { "address": "Володимира Маяковського просп., 5", "id": "894", "num": "1570", "id_city": "1", "id_size": "1", "id_network": "493", "occupancy": "14s30t245f", "lon": "30.58922266", "lat": "50.49726640", "grp": "1.06", "ots": "32", "doors_no": "5634", "pos": "0", "angle": "330", "id_catab": "1", "price": 4000 }, { "address": "Космонавта Комарова просп. - Миколи Василенка вул.", "id": "1123", "num": "1572", "id_city": "1", "id_size": "1", "id_network": "493", "occupancy": "14r30r31t214f", "lon": "30.42487800", "lat": "50.43972000", "grp": "1.09", "ots": "33", "doors_no": "5638", "pos": "0", "angle": "270", "id_catab": "1", "price": 4000 }, { "address": "Повітрофлотський просп. - Перемоги просп., :зупинка тролейбуса", "id": "751", "num": "9153.3", "id_city": "1", "id_size": "1", "id_network": "492", "occupancy": "14s30r245f", "lon": "30.48251512", "lat": "50.44925887", "grp": "0.7", "ots": "21", "doors_no": "5653", "pos": "0", "angle": "330", "id_catab": "1", "price": 4000 }, { "address": "Повітрофлотський просп. - Перемоги просп., :зупинка тролейбуса", "id": "748", "num": "9575.3", "id_city": "1", "id_size": "1", "id_network": "492", "occupancy": "14s275f", "lon": "30.48251512", "lat": "50.44925887", "grp": "0.27", "ots": "8", "doors_no": "5657", "pos": "0", "angle": "90", "id_catab": "1", "price": 4000 }, { "address": "Чоколівський бульв., 19", "id": "1277", "num": "1577", "id_city": "1", "id_size": "1", "id_network": "493", "occupancy": "289s", "lon": "30.45538100", "lat": "50.43079000", "grp": "1.25", "ots": "37", "doors_no": "5678", "pos": "0", "angle": "0", "id_catab": "1", "price": 4000 }, { "address": "Голосіївський просп. - Васильківська вул., :ст.метро\"Виставковий центр\"", "id": "1133", "num": "1584", "id_city": "1", "id_size": "1", "id_network": "493", "occupancy": "14s275r", "lon": "30.47934746", "lat": "50.38203549", "grp": "0.49", "ots": "15", "doors_no": "5680", "pos": "0", "angle": "150", "id_catab": "2", "price": 3800 }, { "address": "Московська пл., проїзд на Червонозоряний просп.; \"Деміївський\" ринок;№2", "id": "811", "num": "1586", "id_city": "1", "id_size": "1", "id_network": "493", "occupancy": "14r61t214f", "lon": "30.51707600", "lat": "50.40740900", "grp": "1.25", "ots": "38", "doors_no": "5682", "pos": "0", "angle": "240", "id_catab": "1", "price": 4000 }, { "address": "Московська пл. - Червонозоряний просп., 121", "id": "812", "num": "1587", "id_city": "1", "id_size": "1", "id_network": "493", "occupancy": "14s30r245f", "lon": "30.51559790", "lat": "50.40725700", "grp": "1.37", "ots": "41", "doors_no": "5684", "pos": "0", "angle": "240", "id_catab": "1", "price": 4000 }, { "address": "Калинова вул., 64 - Хабаровська вул.", "id": "488", "num": "1588", "id_city": "10", "id_size": "1", "id_network": "493", "occupancy": "14s30r31r61r31f61r30f31r", "lon": "35.06237800", "lat": "48.51410700", "grp": "1.9300000000000002", "ots": "19", "doors_no": "17104", "pos": "0", "angle": "255", "id_catab": "1", "price": 4000 }, { "address": "Калинова вул., 64 - Хабаровська вул.", "id": "489", "num": "1589", "id_city": "10", "id_size": "1", "id_network": "493", "occupancy": "289s", "lon": "35.06237800", "lat": "48.51410700", "grp": "1.9", "ots": "19", "doors_no": "17106", "pos": "0", "angle": "75", "id_catab": "2", "price": 3800 }, { "address": "Героїв Сталінграда вул.", "id": "239", "num": "1601", "id_city": "10", "id_size": "1", "id_network": "493", "occupancy": "14s30t31t214f", "lon": "35.01748050", "lat": "48.43417500", "grp": "2.4699999999999998", "ots": "25", "doors_no": "17002", "pos": "0", "angle": "165", "id_catab": "1", "price": 4000 }, { "address": "Київська вул.", "id": "503", "num": "1602", "id_city": "10", "id_size": "1", "id_network": "493", "occupancy": "14s30f245r", "lon": "34.95535800", "lat": "48.44055450", "grp": "0.79", "ots": "8", "doors_no": "17000", "pos": "0", "angle": "330", "id_catab": "2", "price": 3800 }, { "address": "Борщагівська вул., : Індустріальний міст; №3", "id": "1126", "num": "1635", "id_city": "1", "id_size": "1", "id_network": "493", "occupancy": "289s", "lon": "30.44336625", "lat": "50.44402416", "grp": "1.01", "ots": "30", "doors_no": "2724", "pos": "0", "angle": "105", "id_catab": "1", "price": 4000 }, { "address": "Довженка вул., 8: ст. метро \"Шулявська\"", "id": "1150", "num": "1636", "id_city": "1", "id_size": "1", "id_network": "493", "occupancy": "289s", "lon": "30.44716563", "lat": "50.45762717", "grp": "1.79", "ots": "54", "doors_no": "5701", "pos": "0", "angle": "165", "id_catab": "1", "price": 4000 }, { "address": "Борщагівська вул. - Академіка Янгеля вул.", "id": "1125", "num": "1642", "id_city": "1", "id_size": "1", "id_network": "493", "occupancy": "14s30r31t214f", "lon": "30.45264456", "lat": "50.44676450", "grp": "0.88", "ots": "26", "doors_no": "5708", "pos": "1", "angle": "240", "id_catab": "1", "price": 4000 }, { "address": "Космонавта Комарова просп., №1-3;  АЗС \"Лукойл\"", "id": "946", "num": "1643", "id_city": "1", "id_size": "1", "id_network": "493", "occupancy": "14s61r214f", "lon": "30.42310849", "lat": "50.43884667", "grp": "1.15", "ots": "34", "doors_no": "5714", "pos": "0", "angle": "75", "id_catab": "1", "price": 4000 }, { "address": "Вадима Гетьмана вул., 40-42", "id": "3287", "num": "1644", "id_city": "1", "id_size": "1", "id_network": "493", "occupancy": "14s30r245f", "lon": "30.44414333", "lat": "50.44033006", "grp": "1.35", "ots": "41", "doors_no": "2859", "pos": "-1", "angle": "0", "id_catab": "1", "price": 4000 }, { "address": "Вадима Гетьмана вул. - Борщагівська вул.", "id": "1155", "num": "1645", "id_city": "1", "id_size": "1", "id_network": "493", "occupancy": "14s30t92r31f61r30f31r", "lon": "30.44246125", "lat": "50.44374800", "grp": "1.67", "ots": "50", "doors_no": "5718", "pos": "0", "angle": "165", "id_catab": "1", "price": 4000 }, { "address": "Борщагівська вул. - Академіка Янгеля вул.", "id": "1124", "num": "1646", "id_city": "1", "id_size": "1", "id_network": "493", "occupancy": "14s30t245f", "lon": "30.45264456", "lat": "50.44676450", "grp": "0.86", "ots": "26", "doors_no": "5711", "pos": "-1", "angle": "240", "id_catab": "1", "price": 4000 }, { "address": "Московський просп., : Тульська площа, ТЦ \"Городок\"", "id": "985", "num": "9649.3", "id_city": "1", "id_size": "1", "id_network": "492", "occupancy": "14s15r15t15r16f214t", "lon": "30.49455917", "lat": "50.48935039", "grp": "1.25", "ots": "38", "doors_no": "9833", "pos": "0", "angle": "255", "id_catab": "1", "price": 4000 }, { "address": "Київська вул., 3", "id": "501", "num": "1686", "id_city": "25", "id_size": "1", "id_network": "493", "occupancy": "14f30r245f", "lon": "25.64161200", "lat": "49.56211200", "grp": "7.91", "ots": "12", "doors_no": "106255", "pos": "0", "angle": "60", "id_catab": "2", "price": 3800 }, { "address": "15-го Квітня вул., 4", "id": "397", "num": "1687", "id_city": "25", "id_size": "1", "id_network": "493", "occupancy": "14f91r184f", "lon": "25.64224000", "lat": "49.55720950", "grp": "11.45", "ots": "17", "doors_no": "106113", "pos": "0", "angle": "150", "id_catab": "1", "price": 4000 }, { "address": "15-го Квітня вул., 4", "id": "398", "num": "1688", "id_city": "25", "id_size": "1", "id_network": "493", "occupancy": "289s", "lon": "25.64224000", "lat": "49.55720950", "grp": "10.99", "ots": "16", "doors_no": "106109", "pos": "0", "angle": "330", "id_catab": "2", "price": 3800 }, { "address": "Протасевича вул. - Лесі Українки вул.", "id": "547", "num": "1689", "id_city": "25", "id_size": "1", "id_network": "493", "occupancy": "14f30r245f", "lon": "25.63320400", "lat": "49.54214800", "grp": "7.02", "ots": "11", "doors_no": "108951", "pos": "0", "angle": "75", "id_catab": "1", "price": 4000 }, { "address": "Карпенка вул. - Володимира Винниченка вул.", "id": "495", "num": "1692", "id_city": "25", "id_size": "1", "id_network": "493", "occupancy": "14f30r245f", "lon": "25.57544400", "lat": "49.54110800", "grp": "3.44", "ots": "5", "doors_no": "108740", "pos": "0", "angle": "270", "id_catab": "1", "price": 4000 }, { "address": "Перемоги просп., : завод \"Більшовик\"- №1", "id": "957", "num": "1701", "id_city": "1", "id_size": "1", "id_network": "493", "occupancy": "289s", "lon": "30.44264400", "lat": "50.45482800", "grp": "1.96", "ots": "59", "doors_no": "5495", "pos": "0", "angle": "75", "id_catab": "1", "price": 4000 }, { "address": "Перемоги просп., : завод \"Більшовик\", №2", "id": "954", "num": "1702", "id_city": "1", "id_size": "1", "id_network": "493", "occupancy": "14s61r214f", "lon": "30.44411000", "lat": "50.45460200", "grp": "1.94", "ots": "58", "doors_no": "5499", "pos": "0", "angle": "75", "id_catab": "1", "price": 4000 }, { "address": "Перемоги просп., : завод \"Більшовик\"; №3", "id": "958", "num": "1703", "id_city": "1", "id_size": "1", "id_network": "493", "occupancy": "14s122r61f61r31f", "lon": "30.44505500", "lat": "50.45442500", "grp": "1.7", "ots": "51", "doors_no": "5502", "pos": "0", "angle": "75", "id_catab": "1", "price": 4000 }, { "address": "Васильківська вул., 1: ст.метро \"Голосіївська\"", "id": "1134", "num": "1713", "id_city": "1", "id_size": "1", "id_network": "493", "occupancy": "14s30r31t214f", "lon": "30.50779800", "lat": "50.39715700", "grp": "0.63", "ots": "19", "doors_no": "192844", "pos": "0", "angle": "105", "id_catab": "1", "price": 4000 }, { "address": "Макарова вул. - Титова вул.", "id": "443", "num": "1718", "id_city": "10", "id_size": "1", "id_network": "493", "occupancy": "289s", "lon": "35.00026900", "lat": "48.43261800", "grp": "1.8", "ots": "18", "doors_no": "17026", "pos": "0", "angle": "75", "id_catab": "2", "price": 3800 }, { "address": "Пироговська вул. - Шевченка просп.", "id": "599", "num": "1766", "id_city": "5", "id_size": "1", "id_network": "493", "occupancy": "289s", "lon": "30.75032800", "lat": "46.46428200", "grp": "1.5899999999999999", "ots": "17", "doors_no": "31830", "pos": "0", "angle": "180", "id_catab": "1", "price": 4000 }, { "address": "Спартаківська вул. - Поїздна вул.", "id": "636", "num": "1770", "id_city": "5", "id_size": "1", "id_network": "493", "occupancy": "14s61t214f", "lon": "30.70649100", "lat": "46.45290000", "grp": "1.22", "ots": "13", "doors_no": "31834", "pos": "0", "angle": "180", "id_catab": "1", "price": 4000 }, { "address": "Маршала Жукова просп. - Академіка Глушко просп.", "id": "560", "num": "1780", "id_city": "5", "id_size": "1", "id_network": "493", "occupancy": "14s61r214f", "lon": "30.70863505", "lat": "46.39758161", "grp": "2.36", "ots": "26", "doors_no": "256077", "pos": "0", "angle": "135", "id_catab": "1", "price": 4000 }, { "address": "Овідіопільська дорога", "id": "107", "num": "1785", "id_city": "5", "id_size": "1", "id_network": "493", "occupancy": "44f31t214f", "lon": "30.64831285", "lat": "46.44928961", "grp": "1.32", "ots": "15", "doors_no": "31854", "pos": "0", "angle": "90", "id_catab": "1", "price": 4000 }, { "address": "Овідіопільська дорога", "id": "108", "num": "1786", "id_city": "5", "id_size": "1", "id_network": "493", "occupancy": "289f", "lon": "30.64831285", "lat": "46.44928961", "grp": "0.21", "ots": "2", "doors_no": "31858", "pos": "0", "angle": "270", "id_catab": "2", "price": 3800 }, { "address": "Василя Стуса вул., 2", "id": "449", "num": "1788", "id_city": "5", "id_size": "1", "id_network": "493", "occupancy": "14s61r214f", "lon": "30.68795151", "lat": "46.46478773", "grp": "1.42", "ots": "16", "doors_no": "31859", "pos": "0", "angle": "175", "id_catab": "1", "price": 4000 }, { "address": "Василя Стуса вул., 2", "id": "450", "num": "1789", "id_city": "5", "id_size": "1", "id_network": "493", "occupancy": "289f", "lon": "30.68795151", "lat": "46.46478773", "grp": "1.12", "ots": "12", "doors_no": "31861", "pos": "0", "angle": "0", "id_catab": "2", "price": 3800 }, { "address": "Перемоги просп. - Повітрофлотський просп.", "id": "929", "num": "9796.3", "id_city": "1", "id_size": "1", "id_network": "492", "occupancy": "14s275f", "lon": "30.48316736", "lat": "50.44857818", "grp": "0.24", "ots": "7", "doors_no": "12138", "pos": "0", "angle": "0", "id_catab": "1", "price": 4000 }, { "address": "Перемоги просп. - Повітрофлотський просп.", "id": "925", "num": "1795", "id_city": "1", "id_size": "1", "id_network": "493", "occupancy": "289s", "lon": "30.48316736", "lat": "50.44857818", "grp": "1.71", "ots": "51", "doors_no": "12137", "pos": "0", "angle": "120", "id_catab": "1", "price": 4000 }, { "address": "Московська пл., розподільник: ст.метро \"Деміївська\"; №1; виїзд на  - Голосіївський просп.", "id": "810", "num": "1796", "id_city": "1", "id_size": "1", "id_network": "493", "occupancy": "14s30r31t214f", "lon": "30.51733534", "lat": "50.40613064", "grp": "0.99", "ots": "30", "doors_no": "157682", "pos": "0", "angle": "315", "id_catab": "1", "price": 4000 }, { "address": "Дружби народів бульв., виїзд з вул.Старонаводницької", "id": "835", "num": "1798", "id_city": "1", "id_size": "1", "id_network": "493", "occupancy": "14s214r61r", "lon": "30.55957722", "lat": "50.42425601", "grp": "1.62", "ots": "48", "doors_no": "273150", "pos": "0", "angle": "270", "id_catab": "1", "price": 4000 }, { "address": "Дружби народів бульв., виїзд з вул.Старонаводницької", "id": "836", "num": "1799", "id_city": "1", "id_size": "1", "id_network": "493", "occupancy": "14s30t245t", "lon": "30.55957722", "lat": "50.42425601", "grp": "1.41", "ots": "42", "doors_no": "273151", "pos": "0", "angle": "150", "id_catab": "2", "price": 3800 }, { "address": "Визволителів просп., : парк \"Перемога\"", "id": "922", "num": "1802", "id_city": "1", "id_size": "1", "id_network": "493", "occupancy": "289s", "lon": "30.60498400", "lat": "50.45785588", "grp": "0.51", "ots": "15", "doors_no": "5804", "pos": "0", "angle": "210", "id_catab": "1", "price": 4000 }, { "address": "Перова бульв., : навпроти ринку автозапчастин", "id": "730", "num": "1803", "id_city": "1", "id_size": "1", "id_network": "493", "occupancy": "14s275r", "lon": "30.59327444", "lat": "50.48500191", "grp": "0.67", "ots": "20", "doors_no": "5811", "pos": "-1", "angle": "180", "id_catab": "1", "price": 4000 }, { "address": "Перова бульв., : навпроти ринку автозапчастин", "id": "731", "num": "1804", "id_city": "1", "id_size": "1", "id_network": "493", "occupancy": "289s", "lon": "30.59327444", "lat": "50.48500191", "grp": "0.7", "ots": "21", "doors_no": "5809", "pos": "1", "angle": "180", "id_catab": "1", "price": 4000 }, { "address": "Броварський просп., : 120м від ст.метро \"Чернігівська\"", "id": "708", "num": "1806", "id_city": "1", "id_size": "1", "id_network": "493", "occupancy": "14s30r92r31f61r30f31r", "lon": "30.62803700", "lat": "50.46052100", "grp": "1.38", "ots": "41", "doors_no": "5825", "pos": "0", "angle": "255", "id_catab": "1", "price": 4000 }, { "address": "Броварський просп., : 120м від ст.метро \"Чернігівська\"", "id": "709", "num": "1807", "id_city": "1", "id_size": "1", "id_network": "493", "occupancy": "14s275r", "lon": "30.62803700", "lat": "50.46052100", "grp": "1.27", "ots": "38", "doors_no": "5831", "pos": "0", "angle": "150", "id_catab": "2", "price": 3800 }, { "address": "Перемоги просп., : навпроти парку ім. О.С.Пушкіна", "id": "967", "num": "1810", "id_city": "1", "id_size": "1", "id_network": "493", "occupancy": "289s", "lon": "30.45489900", "lat": "50.45277800", "grp": "1.9", "ots": "57", "doors_no": "5847", "pos": "0", "angle": "75", "id_catab": "1", "price": 4000 }, { "address": "Московський просп., : Тульска площа, на разподыльнику; №1", "id": "977", "num": "9811.3", "id_city": "1", "id_size": "1", "id_network": "492", "occupancy": "14s275r", "lon": "30.49895305", "lat": "50.48895717", "grp": "1.09", "ots": "33", "doors_no": "5867", "pos": "0", "angle": "90", "id_catab": "1", "price": 4000 }, { "address": "Московський просп., : Тульска площа, на разподыльнику; №2", "id": "984", "num": "1814", "id_city": "1", "id_size": "1", "id_network": "493", "occupancy": "289s", "lon": "30.49649500", "lat": "50.48898000", "grp": "2.01", "ots": "60", "doors_no": "5872", "pos": "0", "angle": "270", "id_catab": "2", "price": 3800 }, { "address": "Пасіонарії узвіз - Клочківська вул.", "id": "1352", "num": "1819", "id_city": "3", "id_size": "1", "id_network": "493", "occupancy": "14s30t31t214f", "lon": "36.21880700", "lat": "50.00421800", "grp": "3.82", "ots": "44", "doors_no": "14396", "pos": "0", "angle": "120", "id_catab": "1", "price": 4000 }, { "address": "Хуторівка вул.", "id": "665", "num": "1834", "id_city": "4", "id_size": "1", "id_network": "493", "occupancy": "289s", "lon": "24.02621774", "lat": "49.80091594", "grp": "3.7800000000000002", "ots": "23", "doors_no": "53366", "pos": "0", "angle": "75", "id_catab": "1", "price": 4000 }, { "address": "Хуторівка вул.", "id": "666", "num": "1835", "id_city": "4", "id_size": "1", "id_network": "493", "occupancy": "289s", "lon": "24.02621774", "lat": "49.80091594", "grp": "3.7800000000000002", "ots": "23", "doors_no": "72763", "pos": "0", "angle": "255", "id_catab": "1", "price": 4000 }, { "address": "Кульпарківська вул., 226 - Наукова вул.", "id": "569", "num": "1836", "id_city": "4", "id_size": "1", "id_network": "493", "occupancy": "289s", "lon": "23.98095686", "lat": "49.80503436", "grp": "2.05", "ots": "12", "doors_no": "276083", "pos": "0", "angle": "345", "id_catab": "1", "price": 4000 }, { "address": "Городоцька вул. - Кузневича Г. вул.", "id": "470", "num": "1841", "id_city": "4", "id_size": "1", "id_network": "493", "occupancy": "289s", "lon": "23.98154333", "lat": "49.83311633", "grp": "2.87", "ots": "17", "doors_no": "35870", "pos": "0", "angle": "165", "id_catab": "2", "price": 3800 }, { "address": "Городоцька вул. - Кузневича Г. вул.", "id": "471", "num": "1842", "id_city": "4", "id_size": "1", "id_network": "493", "occupancy": "289s", "lon": "23.98154333", "lat": "49.83311633", "grp": "3.07", "ots": "18", "doors_no": "35871", "pos": "0", "angle": "285", "id_catab": "1", "price": 4000 }, { "address": "Митрополита Андрея вул. - Митрополита Ангеловича вул.", "id": "1291", "num": "1845", "id_city": "4", "id_size": "1", "id_network": "493", "occupancy": "289s", "lon": "24.00782050", "lat": "49.83548350", "grp": "2.56", "ots": "15", "doors_no": "196185", "pos": "0", "angle": "345", "id_catab": "1", "price": 4000 }, { "address": "Митрополита Андрея вул. - Митрополита Ангеловича вул.", "id": "1292", "num": "1846", "id_city": "4", "id_size": "1", "id_network": "493", "occupancy": "289s", "lon": "24.00782050", "lat": "49.83548350", "grp": "1.81", "ots": "11", "doors_no": "35910", "pos": "0", "angle": "165", "id_catab": "1", "price": 4000 }, { "address": "Кульпарківська вул. - Антоновича вул.", "id": "1293", "num": "1847", "id_city": "4", "id_size": "1", "id_network": "493", "occupancy": "289s", "lon": "23.99002700", "lat": "49.82571700", "grp": "4.17", "ots": "25", "doors_no": "35928", "pos": "0", "angle": "135", "id_catab": "1", "price": 4000 }, { "address": "Наукова вул. - Тролейбусна вул.", "id": "571", "num": "1876", "id_city": "4", "id_size": "1", "id_network": "493", "occupancy": "289s", "lon": "24.00560400", "lat": "49.80348000", "grp": "5.07", "ots": "30", "doors_no": "35938", "pos": "0", "angle": "225", "id_catab": "1", "price": 4000 }, { "address": "Стрийська вул., 63", "id": "640", "num": "1877", "id_city": "4", "id_size": "1", "id_network": "493", "occupancy": "289s", "lon": "24.01617150", "lat": "49.79400350", "grp": "4.62", "ots": "28", "doors_no": "35950", "pos": "0", "angle": "210", "id_catab": "1", "price": 4000 }, { "address": "Стрийська вул., 63", "id": "641", "num": "1878", "id_city": "4", "id_size": "1", "id_network": "493", "occupancy": "289s", "lon": "24.01617150", "lat": "49.79400350", "grp": "4.62", "ots": "28", "doors_no": "35949", "pos": "0", "angle": "30", "id_catab": "1", "price": 4000 }, { "address": "Сихівська вул. - Кавалерідзе вул.", "id": "645", "num": "1879", "id_city": "4", "id_size": "1", "id_network": "493", "occupancy": "289s", "lon": "24.06384000", "lat": "49.79429300", "grp": "3.59", "ots": "22", "doors_no": "35961", "pos": "0", "angle": "315", "id_catab": "2", "price": 3800 }, { "address": "Стрийська вул., 77", "id": "642", "num": "1880", "id_city": "4", "id_size": "1", "id_network": "493", "occupancy": "14s275r", "lon": "24.01524150", "lat": "49.78977000", "grp": "4.38", "ots": "26", "doors_no": "35969", "pos": "0", "angle": "0", "id_catab": "1", "price": 4000 }, { "address": "Стрийська вул., 77", "id": "643", "num": "1881", "id_city": "4", "id_size": "1", "id_network": "493", "occupancy": "289s", "lon": "24.01524150", "lat": "49.78977000", "grp": "4.38", "ots": "26", "doors_no": "35970", "pos": "0", "angle": "180", "id_catab": "1", "price": 4000 }, { "address": "Городоцька вул. - Виговського вул.", "id": "467", "num": "1883", "id_city": "4", "id_size": "1", "id_network": "493", "occupancy": "289s", "lon": "23.96844600", "lat": "49.83046450", "grp": "2.83", "ots": "17", "doors_no": "36003", "pos": "0", "angle": "105", "id_catab": "1", "price": 4000 }, { "address": "Городоцька вул. - Виговського вул.", "id": "468", "num": "1884", "id_city": "4", "id_size": "1", "id_network": "493", "occupancy": "14s61r214f", "lon": "23.96844600", "lat": "49.83046450", "grp": "3.52", "ots": "21", "doors_no": "36010", "pos": "0", "angle": "285", "id_catab": "2", "price": 3800 }, { "address": "Зелена вул. - Джорджа Вашингтона вул.", "id": "477", "num": "1885", "id_city": "4", "id_size": "1", "id_network": "493", "occupancy": "14s244r31r", "lon": "24.06173900", "lat": "49.81579300", "grp": "2.54", "ots": "15", "doors_no": "36016", "pos": "0", "angle": "120", "id_catab": "1", "price": 4000 }, { "address": "Городоцька вул., 245", "id": "469", "num": "1886", "id_city": "4", "id_size": "1", "id_network": "493", "occupancy": "289s", "lon": "23.97264200", "lat": "49.83121400", "grp": "3.06", "ots": "18", "doors_no": "36020", "pos": "0", "angle": "105", "id_catab": "1", "price": 4000 }, { "address": "Богдана Хмельницького вул., 222 - Грінченка вул.", "id": "437", "num": "1890", "id_city": "4", "id_size": "1", "id_network": "493", "occupancy": "14s30r31r214f", "lon": "24.05799100", "lat": "49.87050200", "grp": "3.3", "ots": "20", "doors_no": "207879", "pos": "0", "angle": "150", "id_catab": "1", "price": 4000 }, { "address": "Вячеслава Липинського вул., 50", "id": "548", "num": "1891", "id_city": "4", "id_size": "1", "id_network": "493", "occupancy": "289s", "lon": "24.03489450", "lat": "49.86418950", "grp": "3.06", "ots": "18", "doors_no": "36038", "pos": "0", "angle": "285", "id_catab": "1", "price": 4000 }, { "address": "Вячеслава Липинського вул., 50", "id": "549", "num": "1892", "id_city": "4", "id_size": "1", "id_network": "493", "occupancy": "289s", "lon": "24.03489450", "lat": "49.86418950", "grp": "2.89", "ots": "17", "doors_no": "36039", "pos": "0", "angle": "105", "id_catab": "2", "price": 3800 }, { "address": "Марини Раскової вул., cт. метро  \"Лівобережна\"", "id": "1355", "num": "9143.3", "id_city": "1", "id_size": "1", "id_network": "492", "occupancy": "289s", "lon": "30.59844700", "lat": "50.45084900", "grp": "0.8", "ots": "24", "doors_no": "6739", "pos": "0", "angle": "225", "id_catab": "1", "price": 4000 }, { "address": "Марини Раскової вул., cт. метро  \"Лівобережна\"", "id": "1358", "num": "9896.3", "id_city": "1", "id_size": "1", "id_network": "492", "occupancy": "14s30t245r", "lon": "30.59844700", "lat": "50.45084900", "grp": "2.06", "ots": "62", "doors_no": "6733", "pos": "0", "angle": "15", "id_catab": "1", "price": 4000 }, { "address": "Клочківська вул., 61/63 - Рогатинський пров.", "id": "511", "num": "1911", "id_city": "3", "id_size": "1", "id_network": "493", "occupancy": "289s", "lon": "36.22217300", "lat": "49.99962025", "grp": "2.34", "ots": "27", "doors_no": "14411", "pos": "0", "angle": "240", "id_catab": "2", "price": 3800 }, { "address": "Клочківська вул., 61/63 - Рогатинський пров.", "id": "512", "num": "1912.3", "id_city": "3", "id_size": "1", "id_network": "492", "occupancy": "289f", "lon": "36.22217300", "lat": "49.99962025", "grp": "1.6400000000000001", "ots": "19", "doors_no": "14413", "pos": "0", "angle": "60", "id_catab": "1", "price": 4000 }, { "address": "Металургів просп.", "id": "263", "num": "1919", "id_city": "6", "id_size": "1", "id_network": "493", "occupancy": "14s30t31t214f", "lon": "35.11117300", "lat": "47.86369400", "grp": "1.96", "ots": "17", "doors_no": "93729", "pos": "0", "angle": "120", "id_catab": "1", "price": 4000 }, { "address": "Профспілок пл. - 40-річчя Радянської України вул.", "id": "141", "num": "1922", "id_city": "6", "id_size": "1", "id_network": "493", "occupancy": "14f30r245f", "lon": "35.14141300", "lat": "47.84084800", "grp": "0.8", "ots": "7", "doors_no": "12888", "pos": "0", "angle": "135", "id_catab": "1", "price": 4000 }, { "address": "Профспілок пл. - 40-річчя Радянської України вул.", "id": "4026", "num": "1923", "id_city": "6", "id_size": "1", "id_network": "493", "occupancy": "289s", "lon": "35.14196800", "lat": "47.84053900", "grp": "0.8", "ots": "7", "doors_no": "12887", "pos": "0", "angle": "135", "id_catab": "1", "price": 4000 }, { "address": "40-річчя Радянської України вул. - Лермонтова вул.", "id": "403", "num": "1924", "id_city": "6", "id_size": "1", "id_network": "493", "occupancy": "14s91r62f30r61f31r", "lon": "35.13331200", "lat": "47.84534867", "grp": "3.03", "ots": "26", "doors_no": "12891", "pos": "0", "angle": "105", "id_catab": "1", "price": 4000 }, { "address": "40-річчя Радянської України вул. - Лермонтова вул.", "id": "404", "num": "1925", "id_city": "6", "id_size": "1", "id_network": "493", "occupancy": "14s30t245f", "lon": "35.13331200", "lat": "47.84534867", "grp": "1.07", "ots": "9", "doors_no": "25737", "pos": "0", "angle": "225", "id_catab": "1", "price": 4000 }, { "address": "Іванова вул. - 8-го Березня вул.", "id": "479", "num": "1926", "id_city": "6", "id_size": "1", "id_network": "493", "occupancy": "14s30r61t184f", "lon": "35.19825650", "lat": "47.83125000", "grp": "1.35", "ots": "12", "doors_no": "12798", "pos": "0", "angle": "90", "id_catab": "1", "price": 4000 }, { "address": "Іванова вул. - 8-го Березня вул.", "id": "480", "num": "1927", "id_city": "6", "id_size": "1", "id_network": "493", "occupancy": "14s275r", "lon": "35.19825650", "lat": "47.83125000", "grp": "2.21", "ots": "19", "doors_no": "12800", "pos": "0", "angle": "270", "id_catab": "1", "price": 4000 }, { "address": "Космічна вул. - Складська вул.", "id": "527", "num": "1928", "id_city": "6", "id_size": "8", "id_network": "493", "occupancy": "289s", "lon": "35.23385600", "lat": "47.78628950", "grp": "1.8900000000000001", "ots": "16", "doors_no": "12893", "pos": "0", "angle": "90", "id_catab": "1", "price": 4000 }, { "address": "Космічна вул. - Складська вул.", "id": "528", "num": "1929", "id_city": "6", "id_size": "8", "id_network": "493", "occupancy": "289s", "lon": "35.23385600", "lat": "47.78628950", "grp": "1.8900000000000001", "ots": "16", "doors_no": "12894", "pos": "0", "angle": "270", "id_catab": "1", "price": 4000 }, { "address": "Набережне шосе, : міст ім.Патона", "id": "830", "num": "1931", "id_city": "1", "id_size": "1", "id_network": "493", "occupancy": "14s275r", "lon": "30.56890900", "lat": "50.42387100", "grp": "2.01", "ots": "60", "doors_no": "5880", "pos": "0", "angle": "0", "id_catab": "2", "price": 3800 },